[
    {
        "index": 1,
        "place_name": "Agrasen ki Baoli",
        "latitude": "28.626042",
        "longitude": "77.225",
        "city": "New Delhi",
        "state": "Delhi",
        "country": "India",
        "url": "https://www.atlasobscura.com/places/agrasen-ki-baoli"
    },
    {
        "index": 2,
        "place_name": "Bahá'í Lotus Temple",
        "latitude": "28.553492",
        "longitude": "77.258826",
        "city": "New Delhi",
        "state": "Delhi",
        "country": "India",
        "url": "https://www.atlasobscura.com/places/bahai-lotus-temple"
    },
    {
        "index": 3,
        "place_name": "Cafe Lota",
        "latitude": "28.61367",
        "longitude": "77.242581",
        "city": "New Delhi",
        "state": "Delhi NCR",
        "country": "India",
        "url": "https://www.atlasobscura.com/places/cafe-lota"
    },
    {
        "index": 4,
        "place_name": " Sunderwala Burj",
        "latitude": "28.596874",
        "longitude": "77.245339",
        "city": "New Delhi",
        "state": "Delhi",
        "country": "India",
        "url": "https://www.atlasobscura.com/places/sunderwala-burj"
    },
    {
        "index": 5,
        "place_name": "Khari Baoli Rooftop",
        "latitude": "28.65678",
        "longitude": "77.221898",
        "city": "New Delhi",
        "state": "Delhi",
        "country": "India",
        "url": "https://www.atlasobscura.com/places/khari-baoli-rooftop"
    },
    {
        "index": 6,
        "place_name": "Iron Pillar of Delhi",
        "latitude": "28.524786",
        "longitude": "77.184964",
        "city": "New Delhi",
        "state": "Delhi",
        "country": "India",
        "url": "https://www.atlasobscura.com/places/iron-pillar-delhi"
    },
    {
        "index": 7,
        "place_name": "Gandhi Smriti",
        "latitude": "28.602013",
        "longitude": "77.215262",
        "city": "New Delhi",
        "state": "Delhi",
        "country": "India",
        "url": "https://www.atlasobscura.com/places/gandhi-smriti"
    },
    {
        "index": 8,
        "place_name": "Sulabh Museum of Toilets",
        "latitude": "28.598001",
        "longitude": "77.081392",
        "city": "New Delhi",
        "state": "Delhi",
        "country": "India",
        "url": "https://www.atlasobscura.com/places/sulabh-museum-of-toilets"
    },
    {
        "index": 9,
        "place_name": "Indian Coffee House, Connaught Place",
        "latitude": "28.630795",
        "longitude": "77.216006",
        "city": "New Delhi",
        "state": "Delhi NCR",
        "country": "India",
        "url": "https://www.atlasobscura.com/places/india-coffee-house-connaught-place"
    },
    {
        "index": 10,
        "place_name": "Lodhi Art District",
        "latitude": "28.586249",
        "longitude": "77.225211",
        "city": "New Delhi",
        "state": "Delhi",
        "country": "India",
        "url": "https://www.atlasobscura.com/places/lodhi-art-district"
    },
    {
        "index": 11,
        "place_name": "Yamuna Ghat",
        "latitude": "28.664161",
        "longitude": "77.23948",
        "city": "New Delhi",
        "state": "Delhi",
        "country": "India",
        "url": "https://www.atlasobscura.com/places/yamuna-ghat"
    },
    {
        "index": 12,
        "place_name": "India Gate Canopy",
        "latitude": "28.612912",
        "longitude": "77.22951",
        "city": "New Delhi",
        "state": "Delhi",
        "country": "India",
        "url": "https://www.atlasobscura.com/places/india-gate-canopy"
    },
    {
        "index": 13,
        "place_name": "Bijay Mandal ",
        "latitude": "28.54096",
        "longitude": "77.206492",
        "city": "New Delhi",
        "state": "Delhi",
        "country": "India",
        "url": "https://www.atlasobscura.com/places/bijay-mandal"
    },
    {
        "index": 14,
        "place_name": "Hijron ka Khanqah",
        "latitude": "28.517454",
        "longitude": "77.178212",
        "city": "New Delhi",
        "state": "Delhi",
        "country": "India",
        "url": "https://www.atlasobscura.com/places/hijron-ka-khanqah"
    },
    {
        "index": 15,
        "place_name": "Lothian Cemetery",
        "latitude": "28.661271",
        "longitude": "77.236225",
        "city": "New Delhi",
        "state": "Delhi",
        "country": "India",
        "url": "https://www.atlasobscura.com/places/lothian-cemetery"
    },
    {
        "index": 16,
        "place_name": "Judah Hyam Synagogue",
        "latitude": "28.603804",
        "longitude": "77.227525",
        "city": "New Delhi",
        "state": "Delhi",
        "country": "India",
        "url": "https://www.atlasobscura.com/places/judah-hyam-synagogue"
    },
    {
        "index": 17,
        "place_name": "Jamali Kamali Mosque and Tomb",
        "latitude": "28.52089",
        "longitude": "77.185477",
        "city": "New Delhi",
        "state": "Delhi",
        "country": "India",
        "url": "https://www.atlasobscura.com/places/jamali-kamali-mosque-and-tomb"
    },
    {
        "index": 18,
        "place_name": "Tomb of Balban",
        "latitude": "28.519678",
        "longitude": "77.18882",
        "city": "New Delhi",
        "state": "Delhi",
        "country": "India",
        "url": "https://www.atlasobscura.com/places/tomb-of-balban"
    },
    {
        "index": 19,
        "place_name": "Feroz Shah Kotla",
        "latitude": "28.634963",
        "longitude": "77.242693",
        "city": "New Delhi",
        "state": "Delhi",
        "country": "India",
        "url": "https://www.atlasobscura.com/places/feroz-shah-kotla-india"
    },
    {
        "index": 20,
        "place_name": "Safdarjung Airport",
        "latitude": "28.584118",
        "longitude": "77.206054",
        "city": "New Delhi",
        "state": "Delhi",
        "country": "India",
        "url": "https://www.atlasobscura.com/places/safdarjung-airport"
    },
    {
        "index": 21,
        "place_name": "Razia Sultan Tomb",
        "latitude": "28.646414",
        "longitude": "77.231816",
        "city": "New Delhi",
        "state": "Delhi",
        "country": "India",
        "url": "https://www.atlasobscura.com/places/razia-sultan-tomb-new-delhi-india"
    },
    {
        "index": 22,
        "place_name": "Smith's Folly",
        "latitude": "28.523963",
        "longitude": "77.186547",
        "city": "New Delhi",
        "state": "Delhi",
        "country": "India",
        "url": "https://www.atlasobscura.com/places/smiths-folly"
    },
    {
        "index": 23,
        "place_name": "Tribute to Jewish-Indian Actresses",
        "latitude": "28.63042",
        "longitude": "77.217722",
        "city": "New Delhi",
        "state": "Delhi",
        "country": "India",
        "url": "https://www.atlasobscura.com/places/mural-jewish-indian-actresses"
    },
    {
        "index": 24,
        "place_name": "Leo Tolstoy Monument, Janpath",
        "latitude": "28.626125",
        "longitude": "77.219562",
        "city": "New Delhi",
        "state": "Delhi",
        "country": "India",
        "url": "https://www.atlasobscura.com/places/leo-tolstoy-monument-janpath"
    },
    {
        "index": 25,
        "place_name": "Heritage Charkha Museum",
        "latitude": "28.631407",
        "longitude": "77.217205",
        "city": "New Delhi",
        "state": "Delhi",
        "country": "India",
        "url": "https://www.atlasobscura.com/places/heritage-charkha-museum"
    }
]