[
    {
        "city_name": "Versailles",
        "place_id": 10061,
        "latitude": 48.802074,
        "longitude": 2.128208
    },
    {
        "city_name": "Frederikshavn",
        "place_id": 10075,
        "latitude": 57.44707,
        "longitude": 10.530396
    },
    {
        "city_name": "Shingu",
        "place_id": 1010,
        "latitude": 33.72517,
        "longitude": 135.99408
    },
    {
        "city_name": "Braga",
        "place_id": 10112,
        "latitude": 41.54921,
        "longitude": -8.425174
    },
    {
        "city_name": "Chesterfield",
        "place_id": 10129,
        "latitude": 53.24231,
        "longitude": -1.431313
    },
    {
        "city_name": "Barnsley",
        "place_id": 10174,
        "latitude": 53.551136,
        "longitude": -1.480029
    },
    {
        "city_name": "Holstebro",
        "place_id": 10189,
        "latitude": 56.36254,
        "longitude": 8.62026
    },
    {
        "city_name": "Helsingborg",
        "place_id": 10239,
        "latitude": 56.04393,
        "longitude": 12.69587
    },
    {
        "city_name": "Haderslev",
        "place_id": 10240,
        "latitude": 55.25055,
        "longitude": 9.48808
    },
    {
        "city_name": "Bronderslev",
        "place_id": 10246,
        "latitude": 57.27043,
        "longitude": 9.94966
    },
    {
        "city_name": "Soenderborg",
        "place_id": 10253,
        "latitude": 54.91003,
        "longitude": 9.78996
    },
    {
        "city_name": "Randers",
        "place_id": 10301,
        "latitude": 56.45936,
        "longitude": 10.03583
    },
    {
        "city_name": "Agios Nikolaos",
        "place_id": 10323,
        "latitude": 35.18505,
        "longitude": 25.70571
    },
    {
        "city_name": "Horsens",
        "place_id": 10372,
        "latitude": 55.86211,
        "longitude": 9.84325
    },
    {
        "city_name": "Schwabisch Hall",
        "place_id": 10410,
        "latitude": 49.11332,
        "longitude": 9.7461
    },
    {
        "city_name": "Kolding",
        "place_id": 10434,
        "latitude": 55.4864,
        "longitude": 9.47345
    },
    {
        "city_name": "Volos",
        "place_id": 10567,
        "latitude": 39.361378,
        "longitude": 22.95001
    },
    {
        "city_name": "Jambi",
        "place_id": 1062,
        "latitude": -1.627,
        "longitude": 103.63198
    },
    {
        "city_name": "Roskilde",
        "place_id": 10659,
        "latitude": 55.64046,
        "longitude": 12.09091
    },
    {
        "city_name": "Ercolano",
        "place_id": 10669,
        "latitude": 40.80588,
        "longitude": 14.35286
    },
    {
        "city_name": "Shiroishi",
        "place_id": 1077,
        "latitude": 38.002922,
        "longitude": 140.6181
    },
    {
        "city_name": "Monte-Carlo",
        "place_id": 10792,
        "latitude": 43.7383,
        "longitude": 7.42696
    },
    {
        "city_name": "Kemer",
        "place_id": 10814,
        "latitude": 36.59687,
        "longitude": 30.56486
    },
    {
        "city_name": "Viana do Castelo",
        "place_id": 10828,
        "latitude": 41.69565,
        "longitude": -8.82913
    },
    {
        "city_name": "Koganei",
        "place_id": 1086,
        "latitude": 35.692028,
        "longitude": 139.49802
    },
    {
        "city_name": "Chatham",
        "place_id": 11019,
        "latitude": 51.379982,
        "longitude": 0.517608
    },
    {
        "city_name": "Leverkusen",
        "place_id": 11056,
        "latitude": 51.03319,
        "longitude": 6.98174
    },
    {
        "city_name": "Osmangazi",
        "place_id": 11119,
        "latitude": 40.22515,
        "longitude": 29.07459
    },
    {
        "city_name": "Monchengladbach",
        "place_id": 11205,
        "latitude": 51.196854,
        "longitude": 6.440438
    },
    {
        "city_name": "Oga",
        "place_id": 1121,
        "latitude": 39.882652,
        "longitude": 139.84915
    },
    {
        "city_name": "Helsingoer",
        "place_id": 11242,
        "latitude": 56.03344,
        "longitude": 12.6135
    },
    {
        "city_name": "Selfoss",
        "place_id": 11364,
        "latitude": 63.9339,
        "longitude": -21.00011
    },
    {
        "city_name": "Norrkoping",
        "place_id": 11427,
        "latitude": 58.58464,
        "longitude": 16.19387
    },
    {
        "city_name": "Braintree",
        "place_id": 11463,
        "latitude": 51.87686,
        "longitude": 0.554981
    },
    {
        "city_name": "Nikko",
        "place_id": 116,
        "latitude": 36.747803,
        "longitude": 139.61934
    },
    {
        "city_name": "Redditch",
        "place_id": 11996,
        "latitude": 52.30727,
        "longitude": -1.94126
    },
    {
        "city_name": "Vaxjo",
        "place_id": 12156,
        "latitude": 56.87996,
        "longitude": 14.79945
    },
    {
        "city_name": "Zandvoort",
        "place_id": 12247,
        "latitude": 52.37561,
        "longitude": 4.531879
    },
    {
        "city_name": "Matsuyama",
        "place_id": 123,
        "latitude": 33.844376,
        "longitude": 132.76662
    },
    {
        "city_name": "Caerphilly",
        "place_id": 12334,
        "latitude": 51.57659,
        "longitude": -3.21773
    },
    {
        "city_name": "Sami",
        "place_id": 12410,
        "latitude": 38.25224,
        "longitude": 20.64854
    },
    {
        "city_name": "Clevedon",
        "place_id": 12443,
        "latitude": 51.436714,
        "longitude": -2.852483
    },
    {
        "city_name": "Sundsvall",
        "place_id": 12484,
        "latitude": 62.3889,
        "longitude": 17.30687
    },
    {
        "city_name": "Jonkoping",
        "place_id": 12487,
        "latitude": 57.77976,
        "longitude": 14.17648
    },
    {
        "city_name": "Malang",
        "place_id": 125,
        "latitude": -7.96188,
        "longitude": 112.63357
    },
    {
        "city_name": "Montichiari",
        "place_id": 12814,
        "latitude": 45.41465,
        "longitude": 10.39328
    },
    {
        "city_name": "Sparta Municipality",
        "place_id": 12824,
        "latitude": 37.111355,
        "longitude": 22.449701
    },
    {
        "city_name": "Aljezur",
        "place_id": 12847,
        "latitude": 37.31915,
        "longitude": -8.8033
    },
    {
        "city_name": "Sao Paulo",
        "place_id": 131073,
        "latitude": -23.550455,
        "longitude": -46.637535
    },
    {
        "city_name": "Fortaleza",
        "place_id": 131091,
        "latitude": -3.741131,
        "longitude": -38.51481
    },
    {
        "city_name": "Guayaquil",
        "place_id": 131102,
        "latitude": -2.16558,
        "longitude": -79.9177
    },
    {
        "city_name": "Itatiaia",
        "place_id": 131330,
        "latitude": -22.495396,
        "longitude": -44.563072
    },
    {
        "city_name": "Itanhaem",
        "place_id": 131353,
        "latitude": -24.182472,
        "longitude": -46.78909
    },
    {
        "city_name": "Santa Maria",
        "place_id": 131381,
        "latitude": -29.690916,
        "longitude": -53.80694
    },
    {
        "city_name": "Nova Petropolis",
        "place_id": 131425,
        "latitude": -29.37641,
        "longitude": -51.11701
    },
    {
        "city_name": "San Luis",
        "place_id": 131444,
        "latitude": -33.3022,
        "longitude": -66.33762
    },
    {
        "city_name": "Aparecida",
        "place_id": 131464,
        "latitude": -22.84881,
        "longitude": -45.22856
    },
    {
        "city_name": "Presidente Figueiredo",
        "place_id": 131536,
        "latitude": -2.05148,
        "longitude": -60.02493
    },
    {
        "city_name": "Flores Da Cunha",
        "place_id": 131601,
        "latitude": -29.034,
        "longitude": -51.18139
    },
    {
        "city_name": "Santo Angelo",
        "place_id": 131963,
        "latitude": -28.30479,
        "longitude": -54.26238
    },
    {
        "city_name": "Roscommon",
        "place_id": 13354,
        "latitude": 53.62652,
        "longitude": -8.187604
    },
    {
        "city_name": "Lampang",
        "place_id": 1358,
        "latitude": 18.26949,
        "longitude": 99.47059
    },
    {
        "city_name": "Lidkoping",
        "place_id": 13601,
        "latitude": 58.503227,
        "longitude": 13.161678
    },
    {
        "city_name": "Nan",
        "place_id": 1391,
        "latitude": 18.776562,
        "longitude": 100.77405
    },
    {
        "city_name": "Penafiel",
        "place_id": 14040,
        "latitude": 41.60184,
        "longitude": -4.11561
    },
    {
        "city_name": "Fleet",
        "place_id": 14045,
        "latitude": 51.279034,
        "longitude": -0.84054
    },
    {
        "city_name": "Deltebre",
        "place_id": 14504,
        "latitude": 40.72141,
        "longitude": 0.70149
    },
    {
        "city_name": "Tomioka",
        "place_id": 1456,
        "latitude": 36.2519,
        "longitude": 138.89594
    },
    {
        "city_name": "Wanhua",
        "place_id": 146234,
        "latitude": 25.029459,
        "longitude": 121.49786
    },
    {
        "city_name": "Amer",
        "place_id": 146238,
        "latitude": 26.984425,
        "longitude": 75.866936
    },
    {
        "city_name": "Chalong",
        "place_id": 146242,
        "latitude": 7.854821,
        "longitude": 98.33971
    },
    {
        "city_name": "Frederiksberg",
        "place_id": 146330,
        "latitude": 55.678,
        "longitude": 12.535368
    },
    {
        "city_name": "Leeds",
        "place_id": 146511,
        "latitude": 51.250744,
        "longitude": 0.61316
    },
    {
        "city_name": "Indio",
        "place_id": 147369,
        "latitude": 33.7217,
        "longitude": -116.21942
    },
    {
        "city_name": "Canico",
        "place_id": 14983,
        "latitude": 32.64783,
        "longitude": -16.839989
    },
    {
        "city_name": "Postojna",
        "place_id": 15122,
        "latitude": 45.77471,
        "longitude": 14.21301
    },
    {
        "city_name": "Furore",
        "place_id": 15322,
        "latitude": 40.62093,
        "longitude": 14.550239
    },
    {
        "city_name": "Kochi",
        "place_id": 157,
        "latitude": 33.566814,
        "longitude": 133.54352
    },
    {
        "city_name": "Meguro",
        "place_id": 164,
        "latitude": 35.644276,
        "longitude": 139.6991
    },
    {
        "city_name": "Takashima",
        "place_id": 168,
        "latitude": 35.411404,
        "longitude": 136.02051
    },
    {
        "city_name": "La Bourboule",
        "place_id": 17822,
        "latitude": 45.58749,
        "longitude": 2.7383
    },
    {
        "city_name": "Basco",
        "place_id": 1783,
        "latitude": 20.463284,
        "longitude": 122.00427
    },
    {
        "city_name": "Dalhousie",
        "place_id": 1784,
        "latitude": 32.54196,
        "longitude": 75.96567
    },
    {
        "city_name": "Sani",
        "place_id": 17845,
        "latitude": 40.08947,
        "longitude": 23.31604
    },
    {
        "city_name": "Bengkulu",
        "place_id": 1789,
        "latitude": -3.81545,
        "longitude": 102.29077
    },
    {
        "city_name": "Aomori",
        "place_id": 179,
        "latitude": 40.82164,
        "longitude": 140.7434
    },
    {
        "city_name": "Pakse",
        "place_id": 1790,
        "latitude": 15.08336,
        "longitude": 105.7951
    },
    {
        "city_name": "Khiva",
        "place_id": 1791,
        "latitude": 41.37764,
        "longitude": 60.36489
    },
    {
        "city_name": "El Port de la Selva",
        "place_id": 17997,
        "latitude": 42.336777,
        "longitude": 3.204403
    },
    {
        "city_name": "Taipei",
        "place_id": 18,
        "latitude": 25.040995,
        "longitude": 121.51789
    },
    {
        "city_name": "Halong Bay",
        "place_id": 180,
        "latitude": 20.964325,
        "longitude": 107.03013
    },
    {
        "city_name": "Payangan",
        "place_id": 1807,
        "latitude": -8.394602,
        "longitude": 115.25065
    },
    {
        "city_name": "Daman",
        "place_id": 1808,
        "latitude": 20.42447,
        "longitude": 72.85101
    },
    {
        "city_name": "Sepang",
        "place_id": 1809,
        "latitude": 2.69093,
        "longitude": 101.75114
    },
    {
        "city_name": "Nakano",
        "place_id": 181,
        "latitude": 35.708424,
        "longitude": 139.66565
    },
    {
        "city_name": "Patiala",
        "place_id": 1812,
        "latitude": 30.34485,
        "longitude": 76.40001
    },
    {
        "city_name": "Daejeon",
        "place_id": 182,
        "latitude": 36.330097,
        "longitude": 127.42246
    },
    {
        "city_name": "Higashikawa-cho",
        "place_id": 1824,
        "latitude": 43.69918,
        "longitude": 142.51036
    },
    {
        "city_name": "Shaldon",
        "place_id": 18258,
        "latitude": 50.53965,
        "longitude": -3.51108
    },
    {
        "city_name": "Jaisalmer",
        "place_id": 183,
        "latitude": 26.91659,
        "longitude": 70.88833
    },
    {
        "city_name": "Siggiewi",
        "place_id": 18302,
        "latitude": 35.859398,
        "longitude": 14.442628
    },
    {
        "city_name": "San Lawrenz",
        "place_id": 18377,
        "latitude": 36.05529,
        "longitude": 14.20373
    },
    {
        "city_name": "Villedieu-les-Poeles",
        "place_id": 18394,
        "latitude": 48.83913,
        "longitude": -1.22416
    },
    {
        "city_name": "Luang Prabang",
        "place_id": 184,
        "latitude": 19.888624,
        "longitude": 102.14175
    },
    {
        "city_name": "Vaals",
        "place_id": 18429,
        "latitude": 50.770683,
        "longitude": 6.018917
    },
    {
        "city_name": "Muroto",
        "place_id": 1845,
        "latitude": 33.287342,
        "longitude": 134.14745
    },
    {
        "city_name": "Troia",
        "place_id": 18450,
        "latitude": 38.48706,
        "longitude": -8.899001
    },
    {
        "city_name": "Souda",
        "place_id": 18460,
        "latitude": 35.48788,
        "longitude": 24.06063
    },
    {
        "city_name": "Kurashiki",
        "place_id": 185,
        "latitude": 34.59567,
        "longitude": 133.77203
    },
    {
        "city_name": "Lop Buri",
        "place_id": 1851,
        "latitude": 14.80015,
        "longitude": 100.63367
    },
    {
        "city_name": "Kushiro",
        "place_id": 186,
        "latitude": 42.984776,
        "longitude": 144.38034
    },
    {
        "city_name": "Kullu",
        "place_id": 1863,
        "latitude": 31.93403,
        "longitude": 77.11338
    },
    {
        "city_name": "Wavre",
        "place_id": 18664,
        "latitude": 50.708042,
        "longitude": 4.593512
    },
    {
        "city_name": "Samut Prakan",
        "place_id": 1869,
        "latitude": 13.6162,
        "longitude": 100.61066
    },
    {
        "city_name": "La Condamine",
        "place_id": 18691,
        "latitude": 43.734375,
        "longitude": 7.420487
    },
    {
        "city_name": "Melaka",
        "place_id": 187,
        "latitude": 2.206847,
        "longitude": 102.25327
    },
    {
        "city_name": "Fuencaliente de la Palma",
        "place_id": 18713,
        "latitude": 28.491919,
        "longitude": -17.854898
    },
    {
        "city_name": "Vrindavan",
        "place_id": 1874,
        "latitude": 27.56472,
        "longitude": 77.6855
    },
    {
        "city_name": "Cebu City",
        "place_id": 188,
        "latitude": 10.31118,
        "longitude": 123.89224
    },
    {
        "city_name": "Munduk",
        "place_id": 1882,
        "latitude": -8.263137,
        "longitude": 115.08643
    },
    {
        "city_name": "Flims",
        "place_id": 18832,
        "latitude": 46.83669,
        "longitude": 9.28524
    },
    {
        "city_name": "Madikeri",
        "place_id": 1886,
        "latitude": 12.42506,
        "longitude": 75.738
    },
    {
        "city_name": "Coonoor",
        "place_id": 1887,
        "latitude": 11.358425,
        "longitude": 76.78568
    },
    {
        "city_name": "Tremosine sul Garda",
        "place_id": 18963,
        "latitude": 45.790184,
        "longitude": 10.746783
    },
    {
        "city_name": "Chiang Mai",
        "place_id": 19,
        "latitude": 18.786184,
        "longitude": 98.99063
    },
    {
        "city_name": "Galle",
        "place_id": 190,
        "latitude": 6.034352,
        "longitude": 80.21621
    },
    {
        "city_name": "Hrensko",
        "place_id": 19021,
        "latitude": 50.87384,
        "longitude": 14.23726
    },
    {
        "city_name": "Ranong",
        "place_id": 1906,
        "latitude": 9.95201,
        "longitude": 98.63384
    },
    {
        "city_name": "Narita",
        "place_id": 191,
        "latitude": 35.78524,
        "longitude": 140.31812
    },
    {
        "city_name": "Ostia Antica",
        "place_id": 19138,
        "latitude": 41.76081,
        "longitude": 12.301378
    },
    {
        "city_name": "Tucepi",
        "place_id": 19156,
        "latitude": 43.26503,
        "longitude": 17.05945
    },
    {
        "city_name": "Puebla de Sanabria",
        "place_id": 19170,
        "latitude": 42.05521,
        "longitude": -6.63391
    },
    {
        "city_name": "Miyazaki",
        "place_id": 192,
        "latitude": 31.91701,
        "longitude": 131.42387
    },
    {
        "city_name": "Nagakute",
        "place_id": 1922,
        "latitude": 35.175915,
        "longitude": 137.04578
    },
    {
        "city_name": "North Queensferry",
        "place_id": 19299,
        "latitude": 56.009773,
        "longitude": -3.394634
    },
    {
        "city_name": "Chiba",
        "place_id": 193,
        "latitude": 35.612225,
        "longitude": 140.11493
    },
    {
        "city_name": "Rishikesh",
        "place_id": 194,
        "latitude": 30.11292,
        "longitude": 78.305855
    },
    {
        "city_name": "Sagada",
        "place_id": 1941,
        "latitude": 17.08705,
        "longitude": 120.90343
    },
    {
        "city_name": "Shimoga",
        "place_id": 1942,
        "latitude": 13.9333,
        "longitude": 75.5642
    },
    {
        "city_name": "Gura Humorului",
        "place_id": 19473,
        "latitude": 47.5545,
        "longitude": 25.88919
    },
    {
        "city_name": "Antipolo City",
        "place_id": 1948,
        "latitude": 14.620794,
        "longitude": 121.12541
    },
    {
        "city_name": "Yamagata",
        "place_id": 195,
        "latitude": 38.24931,
        "longitude": 140.33846
    },
    {
        "city_name": "Englefield Green",
        "place_id": 19520,
        "latitude": 51.42867,
        "longitude": -0.57262
    },
    {
        "city_name": "Doi Saket",
        "place_id": 1953,
        "latitude": 18.767,
        "longitude": 99.02616
    },
    {
        "city_name": "Buriram",
        "place_id": 1957,
        "latitude": 14.98717,
        "longitude": 103.08437
    },
    {
        "city_name": "Padangbai",
        "place_id": 1958,
        "latitude": -8.5329,
        "longitude": 115.50761
    },
    {
        "city_name": "La Granja de San Ildefonso",
        "place_id": 19600,
        "latitude": 40.89936,
        "longitude": -4.007031
    },
    {
        "city_name": "Firostefani",
        "place_id": 19616,
        "latitude": 36.425858,
        "longitude": 25.428234
    },
    {
        "city_name": "Kuah",
        "place_id": 1963,
        "latitude": 6.326672,
        "longitude": 99.843025
    },
    {
        "city_name": "Kovalam",
        "place_id": 1966,
        "latitude": 8.384671,
        "longitude": 76.97901
    },
    {
        "city_name": "Hokuto",
        "place_id": 197,
        "latitude": 35.77674,
        "longitude": 138.42331
    },
    {
        "city_name": "South Cerney",
        "place_id": 19703,
        "latitude": 51.67171,
        "longitude": -1.93108
    },
    {
        "city_name": "Ascea",
        "place_id": 19787,
        "latitude": 40.14009,
        "longitude": 15.186558
    },
    {
        "city_name": "Edogawa",
        "place_id": 198,
        "latitude": 35.706657,
        "longitude": 139.86925
    },
    {
        "city_name": "Jember",
        "place_id": 1980,
        "latitude": -8.162556,
        "longitude": 113.66982
    },
    {
        "city_name": "Dwarka",
        "place_id": 1983,
        "latitude": 22.242708,
        "longitude": 68.96821
    },
    {
        "city_name": "Marsaxlokk",
        "place_id": 19860,
        "latitude": 35.840054,
        "longitude": 14.543023
    },
    {
        "city_name": "Morioka",
        "place_id": 199,
        "latitude": 39.70331,
        "longitude": 141.14519
    },
    {
        "city_name": "Tiruvannamalai",
        "place_id": 1997,
        "latitude": 12.23475,
        "longitude": 79.07493
    },
    {
        "city_name": "Saint-Cezaire-sur-Siagne",
        "place_id": 19999,
        "latitude": 43.65003,
        "longitude": 6.79293
    },
    {
        "city_name": "Kyoto",
        "place_id": 2,
        "latitude": 35.007576,
        "longitude": 135.75949
    },
    {
        "city_name": "Yokohama",
        "place_id": 20,
        "latitude": 35.454258,
        "longitude": 139.56802
    },
    {
        "city_name": "Thiruvananthapuram (Trivandrum)",
        "place_id": 200,
        "latitude": 8.50633,
        "longitude": 76.96307
    },
    {
        "city_name": "Nishinomiya",
        "place_id": 201,
        "latitude": 34.710854,
        "longitude": 135.33029
    },
    {
        "city_name": "Wonosobo",
        "place_id": 2014,
        "latitude": -7.368639,
        "longitude": 109.89816
    },
    {
        "city_name": "Kruje",
        "place_id": 20261,
        "latitude": 41.51056,
        "longitude": 19.79007
    },
    {
        "city_name": "Orchha",
        "place_id": 2027,
        "latitude": 25.35597,
        "longitude": 78.64082
    },
    {
        "city_name": "Tacloban",
        "place_id": 2028,
        "latitude": 11.242993,
        "longitude": 125.00335
    },
    {
        "city_name": "Numazu",
        "place_id": 203,
        "latitude": 35.081173,
        "longitude": 138.8544
    },
    {
        "city_name": "Beruwala",
        "place_id": 2034,
        "latitude": 6.478405,
        "longitude": 79.98616
    },
    {
        "city_name": "Orio Al Serio",
        "place_id": 20358,
        "latitude": 45.675274,
        "longitude": 9.685141
    },
    {
        "city_name": "Kulon Progo",
        "place_id": 2036,
        "latitude": -7.808989,
        "longitude": 110.14874
    },
    {
        "city_name": "Saga",
        "place_id": 204,
        "latitude": 33.25845,
        "longitude": 130.29288
    },
    {
        "city_name": "Kurukshetra",
        "place_id": 2040,
        "latitude": 29.97336,
        "longitude": 76.85445
    },
    {
        "city_name": "Astana",
        "place_id": 205,
        "latitude": 51.1759,
        "longitude": 71.43162
    },
    {
        "city_name": "Buon Ma Thuot",
        "place_id": 2050,
        "latitude": 12.67945,
        "longitude": 108.04461
    },
    {
        "city_name": "El Burgo de Osma",
        "place_id": 20585,
        "latitude": 41.58802,
        "longitude": -3.07439
    },
    {
        "city_name": "Oshino-mura",
        "place_id": 2059,
        "latitude": 35.45219,
        "longitude": 138.86122
    },
    {
        "city_name": "Canggu",
        "place_id": 206,
        "latitude": -8.660677,
        "longitude": 115.14252
    },
    {
        "city_name": "Brinchang",
        "place_id": 2064,
        "latitude": 4.48919,
        "longitude": 101.39085
    },
    {
        "city_name": "Gurugram (Gurgaon)",
        "place_id": 207,
        "latitude": 28.46017,
        "longitude": 77.0262
    },
    {
        "city_name": "Fukushima",
        "place_id": 208,
        "latitude": 37.75457,
        "longitude": 140.45837
    },
    {
        "city_name": "Howrah",
        "place_id": 2083,
        "latitude": 22.636742,
        "longitude": 88.34715
    },
    {
        "city_name": "La Turbie",
        "place_id": 20892,
        "latitude": 43.74552,
        "longitude": 7.40023
    },
    {
        "city_name": "Thimphu",
        "place_id": 209,
        "latitude": 27.4682,
        "longitude": 89.66189
    },
    {
        "city_name": "Hoi An",
        "place_id": 21,
        "latitude": 15.87944,
        "longitude": 108.335
    },
    {
        "city_name": "Gifu",
        "place_id": 210,
        "latitude": 35.418854,
        "longitude": 136.75803
    },
    {
        "city_name": "Nagaoka",
        "place_id": 212,
        "latitude": 37.44893,
        "longitude": 138.84839
    },
    {
        "city_name": "Deoghar",
        "place_id": 2121,
        "latitude": 24.482931,
        "longitude": 86.700294
    },
    {
        "city_name": "Gotemba",
        "place_id": 213,
        "latitude": 35.300358,
        "longitude": 138.93419
    },
    {
        "city_name": "Hunza",
        "place_id": 2130,
        "latitude": 36.49721,
        "longitude": 75.00414
    },
    {
        "city_name": "Cox's Bazar",
        "place_id": 2134,
        "latitude": 21.44175,
        "longitude": 91.98958
    },
    {
        "city_name": "Malay",
        "place_id": 214,
        "latitude": 11.900246,
        "longitude": 121.90965
    },
    {
        "city_name": "Kohima",
        "place_id": 2141,
        "latitude": 25.67678,
        "longitude": 94.10938
    },
    {
        "city_name": "Arambol",
        "place_id": 2149,
        "latitude": 15.68656,
        "longitude": 73.7117
    },
    {
        "city_name": "Hakone-machi",
        "place_id": 215,
        "latitude": 35.2,
        "longitude": 139.01666
    },
    {
        "city_name": "Setenil de las Bodegas",
        "place_id": 21583,
        "latitude": 36.86363,
        "longitude": -5.177736
    },
    {
        "city_name": "Samut Songkhram",
        "place_id": 2159,
        "latitude": 13.39802,
        "longitude": 99.99475
    },
    {
        "city_name": "Shimonoseki",
        "place_id": 216,
        "latitude": 33.95628,
        "longitude": 130.94409
    },
    {
        "city_name": "Karuizawa-machi",
        "place_id": 217,
        "latitude": 36.36196,
        "longitude": 138.62407
    },
    {
        "city_name": "Gandhinagar",
        "place_id": 2177,
        "latitude": 23.21567,
        "longitude": 72.65459
    },
    {
        "city_name": "Panchgani",
        "place_id": 2178,
        "latitude": 17.92341,
        "longitude": 73.79764
    },
    {
        "city_name": "Monte Isola",
        "place_id": 21791,
        "latitude": 45.71751,
        "longitude": 10.07907
    },
    {
        "city_name": "Zhuhai",
        "place_id": 218,
        "latitude": 22.27065,
        "longitude": 113.5766
    },
    {
        "city_name": "Tsu",
        "place_id": 219,
        "latitude": 34.718796,
        "longitude": 136.50583
    },
    {
        "city_name": "Ubud",
        "place_id": 22,
        "latitude": -8.506847,
        "longitude": 115.26246
    },
    {
        "city_name": "Changsha",
        "place_id": 220,
        "latitude": 28.22752,
        "longitude": 112.93904
    },
    {
        "city_name": "Sapa",
        "place_id": 221,
        "latitude": 22.341185,
        "longitude": 103.84032
    },
    {
        "city_name": "Fukuyama",
        "place_id": 222,
        "latitude": 34.484413,
        "longitude": 133.36661
    },
    {
        "city_name": "Huelgoat",
        "place_id": 22241,
        "latitude": 48.36354,
        "longitude": -3.74766
    },
    {
        "city_name": "Coutances",
        "place_id": 22286,
        "latitude": 49.04795,
        "longitude": -1.44517
    },
    {
        "city_name": "Kuching",
        "place_id": 223,
        "latitude": 1.52022,
        "longitude": 110.35362
    },
    {
        "city_name": "Nakhon Pathom",
        "place_id": 2244,
        "latitude": 13.823137,
        "longitude": 100.05728
    },
    {
        "city_name": "Oita",
        "place_id": 225,
        "latitude": 33.193016,
        "longitude": 131.66096
    },
    {
        "city_name": "Pahalgam",
        "place_id": 2253,
        "latitude": 34.024384,
        "longitude": 75.31199
    },
    {
        "city_name": "Ranau",
        "place_id": 2256,
        "latitude": 5.95287,
        "longitude": 116.66405
    },
    {
        "city_name": "Mito",
        "place_id": 226,
        "latitude": 36.377117,
        "longitude": 140.46648
    },
    {
        "city_name": "Ueda",
        "place_id": 227,
        "latitude": 36.39358,
        "longitude": 138.26218
    },
    {
        "city_name": "Grainau",
        "place_id": 22704,
        "latitude": 47.476254,
        "longitude": 11.02416
    },
    {
        "city_name": "Beppu",
        "place_id": 228,
        "latitude": 33.281235,
        "longitude": 131.48593
    },
    {
        "city_name": "Asahikawa",
        "place_id": 229,
        "latitude": 43.76887,
        "longitude": 142.36589
    },
    {
        "city_name": "Minato",
        "place_id": 23,
        "latitude": 35.658566,
        "longitude": 139.74556
    },
    {
        "city_name": "Takasaki",
        "place_id": 230,
        "latitude": 36.3391,
        "longitude": 139.0088
    },
    {
        "city_name": "Utsunomiya",
        "place_id": 231,
        "latitude": 36.556725,
        "longitude": 139.88367
    },
    {
        "city_name": "Obertraun",
        "place_id": 23106,
        "latitude": 47.5576,
        "longitude": 13.68616
    },
    {
        "city_name": "Ampang",
        "place_id": 2317,
        "latitude": 3.156205,
        "longitude": 101.75031
    },
    {
        "city_name": "Hachioji",
        "place_id": 232,
        "latitude": 35.65665,
        "longitude": 139.33815
    },
    {
        "city_name": "Koka",
        "place_id": 233,
        "latitude": 34.970467,
        "longitude": 136.15901
    },
    {
        "city_name": "Hirosaki",
        "place_id": 234,
        "latitude": 40.590065,
        "longitude": 140.47287
    },
    {
        "city_name": "Sauraha",
        "place_id": 2342,
        "latitude": 27.58384,
        "longitude": 84.50381
    },
    {
        "city_name": "Santiponce",
        "place_id": 23476,
        "latitude": 37.43483,
        "longitude": -6.0386
    },
    {
        "city_name": "Lahore",
        "place_id": 235,
        "latitude": 31.53944,
        "longitude": 74.30348
    },
    {
        "city_name": "Chasseneuil-du-Poitou",
        "place_id": 23597,
        "latitude": 46.65048,
        "longitude": 0.37474
    },
    {
        "city_name": "Atami",
        "place_id": 236,
        "latitude": 35.094,
        "longitude": 139.06616
    },
    {
        "city_name": "Koriyama",
        "place_id": 237,
        "latitude": 37.398834,
        "longitude": 140.38132
    },
    {
        "city_name": "Gokarna",
        "place_id": 2371,
        "latitude": 14.543638,
        "longitude": 74.31531
    },
    {
        "city_name": "Izu",
        "place_id": 238,
        "latitude": 34.97972,
        "longitude": 138.95724
    },
    {
        "city_name": "Kasauli",
        "place_id": 2397,
        "latitude": 30.905533,
        "longitude": 76.99443
    },
    {
        "city_name": "Jaipur",
        "place_id": 24,
        "latitude": 26.9143,
        "longitude": 75.79276
    },
    {
        "city_name": "Takaoka",
        "place_id": 240,
        "latitude": 36.745445,
        "longitude": 137.01518
    },
    {
        "city_name": "Fukui",
        "place_id": 241,
        "latitude": 36.061928,
        "longitude": 136.22305
    },
    {
        "city_name": "Meschers-sur-Gironde",
        "place_id": 24156,
        "latitude": 45.557,
        "longitude": -0.95219
    },
    {
        "city_name": "Koukounaries",
        "place_id": 24183,
        "latitude": 39.15286,
        "longitude": 23.40404
    },
    {
        "city_name": "Pa Khlok",
        "place_id": 2419,
        "latitude": 8.03918,
        "longitude": 98.40356
    },
    {
        "city_name": "Toyota",
        "place_id": 242,
        "latitude": 35.086586,
        "longitude": 137.15755
    },
    {
        "city_name": "Ngapali",
        "place_id": 2427,
        "latitude": 18.419033,
        "longitude": 94.327866
    },
    {
        "city_name": "Bagan",
        "place_id": 243,
        "latitude": 21.17264,
        "longitude": 94.86154
    },
    {
        "city_name": "Makati",
        "place_id": 244,
        "latitude": 14.557722,
        "longitude": 121.04572
    },
    {
        "city_name": "Imabari",
        "place_id": 245,
        "latitude": 34.068146,
        "longitude": 132.99525
    },
    {
        "city_name": "Hunedoara",
        "place_id": 24520,
        "latitude": 45.75762,
        "longitude": 22.90133
    },
    {
        "city_name": "Ruddington",
        "place_id": 24597,
        "latitude": 52.89246,
        "longitude": -1.150408
    },
    {
        "city_name": "Tsuruoka",
        "place_id": 246,
        "latitude": 38.72739,
        "longitude": 139.83183
    },
    {
        "city_name": "Sorong",
        "place_id": 2461,
        "latitude": -0.876126,
        "longitude": 131.25629
    },
    {
        "city_name": "Ise",
        "place_id": 247,
        "latitude": 34.489243,
        "longitude": 136.71028
    },
    {
        "city_name": "Namba",
        "place_id": 2473,
        "latitude": 34.666317,
        "longitude": 135.50027
    },
    {
        "city_name": "Lhasa",
        "place_id": 248,
        "latitude": 29.65217,
        "longitude": 91.17201
    },
    {
        "city_name": "Fuzhou",
        "place_id": 249,
        "latitude": 26.07409,
        "longitude": 119.29694
    },
    {
        "city_name": "Bajawa",
        "place_id": 2495,
        "latitude": -8.80569,
        "longitude": 120.96683
    },
    {
        "city_name": "Mumbai",
        "place_id": 25,
        "latitude": 18.936844,
        "longitude": 72.8291
    },
    {
        "city_name": "Nagahama",
        "place_id": 250,
        "latitude": 35.379814,
        "longitude": 136.26614
    },
    {
        "city_name": "Taiyuan",
        "place_id": 251,
        "latitude": 37.87056,
        "longitude": 112.55094
    },
    {
        "city_name": "Izumo",
        "place_id": 253,
        "latitude": 35.3611,
        "longitude": 132.7568
    },
    {
        "city_name": "Legian",
        "place_id": 254,
        "latitude": -8.71933,
        "longitude": 115.1692
    },
    {
        "city_name": "Kumarakom",
        "place_id": 2540,
        "latitude": 9.59337,
        "longitude": 76.43358
    },
    {
        "city_name": "Tottori",
        "place_id": 255,
        "latitude": 35.49655,
        "longitude": 134.23166
    },
    {
        "city_name": "Srinagar",
        "place_id": 256,
        "latitude": 34.09222,
        "longitude": 74.80222
    },
    {
        "city_name": "Chiang Rai",
        "place_id": 257,
        "latitude": 19.89657,
        "longitude": 99.84
    },
    {
        "city_name": "Quezon City",
        "place_id": 258,
        "latitude": 14.6539,
        "longitude": 121.0475
    },
    {
        "city_name": "Chuo",
        "place_id": 26,
        "latitude": 35.67321,
        "longitude": 139.77837
    },
    {
        "city_name": "Nerima",
        "place_id": 260,
        "latitude": 35.737736,
        "longitude": 139.65414
    },
    {
        "city_name": "Amphawa",
        "place_id": 2601,
        "latitude": 13.43506,
        "longitude": 99.95761
    },
    {
        "city_name": "Maebashi",
        "place_id": 261,
        "latitude": 36.392414,
        "longitude": 139.0774
    },
    {
        "city_name": "Yufu",
        "place_id": 262,
        "latitude": 33.1833,
        "longitude": 131.433
    },
    {
        "city_name": "Campello sul Clitunno",
        "place_id": 26246,
        "latitude": 42.82034,
        "longitude": 12.7724
    },
    {
        "city_name": "Sihanoukville",
        "place_id": 263,
        "latitude": 10.641693,
        "longitude": 103.54236
    },
    {
        "city_name": "Kita",
        "place_id": 264,
        "latitude": 35.751877,
        "longitude": 139.7375
    },
    {
        "city_name": "Adachi",
        "place_id": 265,
        "latitude": 35.77385,
        "longitude": 139.80544
    },
    {
        "city_name": "Fujisawa",
        "place_id": 266,
        "latitude": 35.335564,
        "longitude": 139.48499
    },
    {
        "city_name": "Tanjung Bungah",
        "place_id": 2661,
        "latitude": 5.467405,
        "longitude": 100.29242
    },
    {
        "city_name": "Sukawati",
        "place_id": 267,
        "latitude": -8.5969,
        "longitude": 115.28281
    },
    {
        "city_name": "Wuxi",
        "place_id": 268,
        "latitude": 31.49095,
        "longitude": 120.31238
    },
    {
        "city_name": "Rawai",
        "place_id": 269,
        "latitude": 7.79836,
        "longitude": 98.3281
    },
    {
        "city_name": "Kirishima",
        "place_id": 270,
        "latitude": 31.765001,
        "longitude": 130.75517
    },
    {
        "city_name": "Onomichi",
        "place_id": 271,
        "latitude": 34.41026,
        "longitude": 133.19614
    },
    {
        "city_name": "Petaling Jaya",
        "place_id": 272,
        "latitude": 3.10363,
        "longitude": 101.64778
    },
    {
        "city_name": "Johor Bahru",
        "place_id": 273,
        "latitude": 1.473394,
        "longitude": 103.75248
    },
    {
        "city_name": "Takatsuki",
        "place_id": 274,
        "latitude": 34.850697,
        "longitude": 135.61868
    },
    {
        "city_name": "Uji",
        "place_id": 275,
        "latitude": 34.88997,
        "longitude": 135.78813
    },
    {
        "city_name": "Zhengzhou",
        "place_id": 276,
        "latitude": 34.74733,
        "longitude": 113.62493
    },
    {
        "city_name": "Phan Thiet",
        "place_id": 277,
        "latitude": 10.930299,
        "longitude": 108.10686
    },
    {
        "city_name": "Kofu",
        "place_id": 278,
        "latitude": 35.660107,
        "longitude": 138.57104
    },
    {
        "city_name": "Lansdowne",
        "place_id": 2791,
        "latitude": 29.84172,
        "longitude": 78.67537
    },
    {
        "city_name": "Hpa An",
        "place_id": 2792,
        "latitude": 16.882593,
        "longitude": 97.63513
    },
    {
        "city_name": "Taito",
        "place_id": 28,
        "latitude": 35.71271,
        "longitude": 139.77634
    },
    {
        "city_name": "Chichibu",
        "place_id": 281,
        "latitude": 35.98107,
        "longitude": 139.08847
    },
    {
        "city_name": "Banyuwangi",
        "place_id": 282,
        "latitude": -8.202316,
        "longitude": 114.37312
    },
    {
        "city_name": "Dhaka City",
        "place_id": 283,
        "latitude": 23.711224,
        "longitude": 90.40077
    },
    {
        "city_name": "Ahangama",
        "place_id": 2830,
        "latitude": 5.96559,
        "longitude": 80.3786
    },
    {
        "city_name": "Sasebo",
        "place_id": 284,
        "latitude": 33.16301,
        "longitude": 129.7187
    },
    {
        "city_name": "Montbard",
        "place_id": 28438,
        "latitude": 47.62164,
        "longitude": 4.33617
    },
    {
        "city_name": "Seogwipo",
        "place_id": 285,
        "latitude": 33.50452,
        "longitude": 126.54024
    },
    {
        "city_name": "Omihachiman",
        "place_id": 286,
        "latitude": 35.12753,
        "longitude": 136.09676
    },
    {
        "city_name": "Nakafurano-cho",
        "place_id": 2863,
        "latitude": 43.40268,
        "longitude": 142.42915
    },
    {
        "city_name": "Panjim",
        "place_id": 287,
        "latitude": 15.45877,
        "longitude": 73.80784
    },
    {
        "city_name": "Pyin Oo Lwin (Maymyo)",
        "place_id": 2874,
        "latitude": 22.022602,
        "longitude": 96.46464
    },
    {
        "city_name": "Karachi",
        "place_id": 288,
        "latitude": 24.880514,
        "longitude": 67.023834
    },
    {
        "city_name": "Ningbo",
        "place_id": 289,
        "latitude": 29.868336,
        "longitude": 121.5445
    },
    {
        "city_name": "Sapporo",
        "place_id": 29,
        "latitude": 43.062054,
        "longitude": 141.35437
    },
    {
        "city_name": "Iwaki",
        "place_id": 290,
        "latitude": 37.050182,
        "longitude": 140.88936
    },
    {
        "city_name": "Vientiane",
        "place_id": 292,
        "latitude": 17.958342,
        "longitude": 102.58472
    },
    {
        "city_name": "Mandalay",
        "place_id": 295,
        "latitude": 21.968811,
        "longitude": 96.0812
    },
    {
        "city_name": "Musashino",
        "place_id": 296,
        "latitude": 35.703003,
        "longitude": 139.56277
    },
    {
        "city_name": "Leh",
        "place_id": 297,
        "latitude": 34.155903,
        "longitude": 77.573
    },
    {
        "city_name": "Hachinohe",
        "place_id": 298,
        "latitude": 40.503143,
        "longitude": 141.50371
    },
    {
        "city_name": "Toyooka",
        "place_id": 299,
        "latitude": 35.5441,
        "longitude": 134.82452
    },
    {
        "city_name": "Osaka",
        "place_id": 3,
        "latitude": 34.686832,
        "longitude": 135.5261
    },
    {
        "city_name": "Nagoya",
        "place_id": 30,
        "latitude": 35.171833,
        "longitude": 136.90817
    },
    {
        "city_name": "Battambang",
        "place_id": 300,
        "latitude": 13.101874,
        "longitude": 103.19874
    },
    {
        "city_name": "Laoag",
        "place_id": 3009,
        "latitude": 18.195599,
        "longitude": 120.59467
    },
    {
        "city_name": "Yangshuo County",
        "place_id": 301,
        "latitude": 24.77824,
        "longitude": 110.49655
    },
    {
        "city_name": "Karangasem",
        "place_id": 303,
        "latitude": -8.369127,
        "longitude": 115.54985
    },
    {
        "city_name": "Chandigarh",
        "place_id": 304,
        "latitude": 30.726543,
        "longitude": 76.76941
    },
    {
        "city_name": "Bogor",
        "place_id": 305,
        "latitude": -6.592846,
        "longitude": 106.79766
    },
    {
        "city_name": "Khao Yai National Park",
        "place_id": 3055,
        "latitude": 14.441548,
        "longitude": 101.3735
    },
    {
        "city_name": "Hsinchu",
        "place_id": 306,
        "latitude": 24.80619,
        "longitude": 120.96892
    },
    {
        "city_name": "Karatsu",
        "place_id": 307,
        "latitude": 33.44301,
        "longitude": 129.96951
    },
    {
        "city_name": "Changchun",
        "place_id": 308,
        "latitude": 43.81595,
        "longitude": 125.32357
    },
    {
        "city_name": "Fujikawaguchiko-machi",
        "place_id": 309,
        "latitude": 35.48703,
        "longitude": 138.68793
    },
    {
        "city_name": "Fukuoka",
        "place_id": 31,
        "latitude": 33.585403,
        "longitude": 130.39636
    },
    {
        "city_name": "Okazaki",
        "place_id": 310,
        "latitude": 34.94794,
        "longitude": 137.16956
    },
    {
        "city_name": "Sagamihara",
        "place_id": 311,
        "latitude": 35.56308,
        "longitude": 139.36353
    },
    {
        "city_name": "Dilijan",
        "place_id": 3114,
        "latitude": 40.739628,
        "longitude": 44.86901
    },
    {
        "city_name": "Aizuwakamatsu",
        "place_id": 312,
        "latitude": 37.48251,
        "longitude": 139.9587
    },
    {
        "city_name": "Digha",
        "place_id": 3129,
        "latitude": 21.630917,
        "longitude": 87.505974
    },
    {
        "city_name": "Manali Tehsil",
        "place_id": 313,
        "latitude": 32.104263,
        "longitude": 77.217514
    },
    {
        "city_name": "Katsushika",
        "place_id": 314,
        "latitude": 35.74697,
        "longitude": 139.85419
    },
    {
        "city_name": "Nanning",
        "place_id": 315,
        "latitude": 22.81622,
        "longitude": 108.36665
    },
    {
        "city_name": "Yamaguchi",
        "place_id": 316,
        "latitude": 34.150448,
        "longitude": 131.44547
    },
    {
        "city_name": "Kawagoe",
        "place_id": 317,
        "latitude": 35.90962,
        "longitude": 139.48654
    },
    {
        "city_name": "Matsusaka",
        "place_id": 318,
        "latitude": 34.574722,
        "longitude": 136.52615
    },
    {
        "city_name": "Hagi",
        "place_id": 319,
        "latitude": 34.41335,
        "longitude": 131.4125
    },
    {
        "city_name": "Shinjuku",
        "place_id": 32,
        "latitude": 35.68983,
        "longitude": 139.70146
    },
    {
        "city_name": "El Nido",
        "place_id": 320,
        "latitude": 11.20594,
        "longitude": 119.42444
    },
    {
        "city_name": "Toba",
        "place_id": 321,
        "latitude": 34.47946,
        "longitude": 136.85132
    },
    {
        "city_name": "Gujo",
        "place_id": 324,
        "latitude": 35.74656,
        "longitude": 136.96419
    },
    {
        "city_name": "Machida",
        "place_id": 325,
        "latitude": 35.53938,
        "longitude": 139.44974
    },
    {
        "city_name": "Kure",
        "place_id": 326,
        "latitude": 34.2445,
        "longitude": 132.56187
    },
    {
        "city_name": "Hirakata",
        "place_id": 327,
        "latitude": 34.81188,
        "longitude": 135.65208
    },
    {
        "city_name": "Moriyama",
        "place_id": 328,
        "latitude": 35.068443,
        "longitude": 135.98442
    },
    {
        "city_name": "Bardez",
        "place_id": 329,
        "latitude": 15.642296,
        "longitude": 73.83094
    },
    {
        "city_name": "Bang Pa-in",
        "place_id": 3295,
        "latitude": 14.26955,
        "longitude": 100.61712
    },
    {
        "city_name": "Kuala Lumpur",
        "place_id": 33,
        "latitude": 3.156802,
        "longitude": 101.69717
    },
    {
        "city_name": "Tashkent",
        "place_id": 330,
        "latitude": 41.32051,
        "longitude": 69.30666
    },
    {
        "city_name": "Zhongshan",
        "place_id": 331,
        "latitude": 22.51577,
        "longitude": 113.39248
    },
    {
        "city_name": "Toyohashi",
        "place_id": 332,
        "latitude": 34.763447,
        "longitude": 137.38306
    },
    {
        "city_name": "Maret",
        "place_id": 333,
        "latitude": 9.482229,
        "longitude": 100.03373
    },
    {
        "city_name": "Minatomirai",
        "place_id": 3337,
        "latitude": 35.457638,
        "longitude": 139.63248
    },
    {
        "city_name": "Pondicherry",
        "place_id": 334,
        "latitude": 11.93472,
        "longitude": 79.81236
    },
    {
        "city_name": "Bolinao",
        "place_id": 3342,
        "latitude": 16.387642,
        "longitude": 119.8923
    },
    {
        "city_name": "Sakura",
        "place_id": 335,
        "latitude": 35.71667,
        "longitude": 140.23334
    },
    {
        "city_name": "Onna-son",
        "place_id": 337,
        "latitude": 26.47595,
        "longitude": 127.85278
    },
    {
        "city_name": "Kobe",
        "place_id": 34,
        "latitude": 34.69096,
        "longitude": 135.19557
    },
    {
        "city_name": "Ichihara",
        "place_id": 340,
        "latitude": 35.513454,
        "longitude": 140.08955
    },
    {
        "city_name": "Joetsu",
        "place_id": 341,
        "latitude": 37.14049,
        "longitude": 138.23962
    },
    {
        "city_name": "Nago",
        "place_id": 342,
        "latitude": 26.59355,
        "longitude": 127.97042
    },
    {
        "city_name": "Itabashi",
        "place_id": 343,
        "latitude": 35.74851,
        "longitude": 139.70273
    },
    {
        "city_name": "Tabanan",
        "place_id": 344,
        "latitude": -8.545374,
        "longitude": 115.12087
    },
    {
        "city_name": "Shimoda",
        "place_id": 346,
        "latitude": 34.677258,
        "longitude": 138.94247
    },
    {
        "city_name": "Nanchang",
        "place_id": 347,
        "latitude": 28.681757,
        "longitude": 115.89462
    },
    {
        "city_name": "Vadodara",
        "place_id": 348,
        "latitude": 22.3,
        "longitude": 73.2
    },
    {
        "city_name": "Darjeeling",
        "place_id": 349,
        "latitude": 27.03938,
        "longitude": 88.26388
    },
    {
        "city_name": "Bengaluru",
        "place_id": 35,
        "latitude": 12.962484,
        "longitude": 77.588455
    },
    {
        "city_name": "Alappuzha",
        "place_id": 350,
        "latitude": 9.44787,
        "longitude": 76.34494
    },
    {
        "city_name": "Shima",
        "place_id": 351,
        "latitude": 34.32808,
        "longitude": 136.8297
    },
    {
        "city_name": "Tanabe",
        "place_id": 353,
        "latitude": 33.72872,
        "longitude": 135.3773
    },
    {
        "city_name": "Mae On",
        "place_id": 3539,
        "latitude": 18.77036,
        "longitude": 99.25191
    },
    {
        "city_name": "Kaga",
        "place_id": 354,
        "latitude": 36.301636,
        "longitude": 136.31981
    },
    {
        "city_name": "Bharatpur",
        "place_id": 3543,
        "latitude": 27.21094,
        "longitude": 77.48155
    },
    {
        "city_name": "Puerto Princesa",
        "place_id": 355,
        "latitude": 9.9645,
        "longitude": 118.7835
    },
    {
        "city_name": "Sanya",
        "place_id": 356,
        "latitude": 18.2524,
        "longitude": 109.51166
    },
    {
        "city_name": "Ichikawa",
        "place_id": 357,
        "latitude": 35.718044,
        "longitude": 139.93022
    },
    {
        "city_name": "Minakami-machi",
        "place_id": 359,
        "latitude": 36.78333,
        "longitude": 138.96667
    },
    {
        "city_name": "Chitose",
        "place_id": 361,
        "latitude": 42.809383,
        "longitude": 141.65399
    },
    {
        "city_name": "Hatsukaichi",
        "place_id": 362,
        "latitude": 34.297,
        "longitude": 132.31917
    },
    {
        "city_name": "Lijiang",
        "place_id": 363,
        "latitude": 26.87473,
        "longitude": 100.23318
    },
    {
        "city_name": "Kintamani",
        "place_id": 364,
        "latitude": -8.260609,
        "longitude": 115.33858
    },
    {
        "city_name": "Iida",
        "place_id": 365,
        "latitude": 35.523983,
        "longitude": 137.82492
    },
    {
        "city_name": "Sado",
        "place_id": 366,
        "latitude": 38.01738,
        "longitude": 138.36696
    },
    {
        "city_name": "Changwon",
        "place_id": 367,
        "latitude": 35.25442,
        "longitude": 128.62668
    },
    {
        "city_name": "Nakatsu",
        "place_id": 368,
        "latitude": 33.60023,
        "longitude": 131.18976
    },
    {
        "city_name": "Fujinomiya",
        "place_id": 369,
        "latitude": 35.216507,
        "longitude": 138.61462
    },
    {
        "city_name": "Kuta",
        "place_id": 37,
        "latitude": -8.728844,
        "longitude": 115.17589
    },
    {
        "city_name": "Haikou",
        "place_id": 370,
        "latitude": 20.04368,
        "longitude": 110.19988
    },
    {
        "city_name": "Coimbatore",
        "place_id": 371,
        "latitude": 11.015845,
        "longitude": 76.954834
    },
    {
        "city_name": "Nasushiobara",
        "place_id": 373,
        "latitude": 36.969948,
        "longitude": 140.05965
    },
    {
        "city_name": "Lucknow",
        "place_id": 375,
        "latitude": 26.85472,
        "longitude": 80.92135
    },
    {
        "city_name": "Ipoh",
        "place_id": 376,
        "latitude": 4.59725,
        "longitude": 101.12015
    },
    {
        "city_name": "Yakushima-cho",
        "place_id": 378,
        "latitude": 30.311666,
        "longitude": 130.587
    },
    {
        "city_name": "Prambanan",
        "place_id": 3783,
        "latitude": -7.755541,
        "longitude": 110.48904
    },
    {
        "city_name": "Changzhou",
        "place_id": 379,
        "latitude": 31.81031,
        "longitude": 119.97402
    },
    {
        "city_name": "Shibuya",
        "place_id": 38,
        "latitude": 35.659035,
        "longitude": 139.69995
    },
    {
        "city_name": "Hefei",
        "place_id": 380,
        "latitude": 31.82048,
        "longitude": 117.2291
    },
    {
        "city_name": "Semarang",
        "place_id": 381,
        "latitude": -6.985362,
        "longitude": 110.41927
    },
    {
        "city_name": "Medan",
        "place_id": 382,
        "latitude": 3.590004,
        "longitude": 98.668915
    },
    {
        "city_name": "Kashiwa",
        "place_id": 383,
        "latitude": 35.860794,
        "longitude": 139.97372
    },
    {
        "city_name": "Amritsar",
        "place_id": 384,
        "latitude": 31.63504,
        "longitude": 74.880035
    },
    {
        "city_name": "Taketa",
        "place_id": 385,
        "latitude": 32.9636,
        "longitude": 131.39513
    },
    {
        "city_name": "Hita",
        "place_id": 386,
        "latitude": 33.312645,
        "longitude": 130.93094
    },
    {
        "city_name": "Iga",
        "place_id": 387,
        "latitude": 34.76676,
        "longitude": 136.12991
    },
    {
        "city_name": "Lapu Lapu",
        "place_id": 389,
        "latitude": 10.3173,
        "longitude": 123.95702
    },
    {
        "city_name": "Guangzhou",
        "place_id": 39,
        "latitude": 23.12947,
        "longitude": 113.26336
    },
    {
        "city_name": "Ashikaga",
        "place_id": 390,
        "latitude": 36.33342,
        "longitude": 139.4538
    },
    {
        "city_name": "Kuwana",
        "place_id": 391,
        "latitude": 35.060352,
        "longitude": 136.69562
    },
    {
        "city_name": "Mirissa",
        "place_id": 392,
        "latitude": 5.94481,
        "longitude": 80.45984
    },
    {
        "city_name": "Yonago",
        "place_id": 393,
        "latitude": 35.4354,
        "longitude": 133.34251
    },
    {
        "city_name": "Davao City",
        "place_id": 394,
        "latitude": 7.072038,
        "longitude": 125.61175
    },
    {
        "city_name": "Hanamaki",
        "place_id": 395,
        "latitude": 39.38398,
        "longitude": 141.1173
    },
    {
        "city_name": "Chino",
        "place_id": 396,
        "latitude": 35.9944,
        "longitude": 138.15428
    },
    {
        "city_name": "Arakawa",
        "place_id": 397,
        "latitude": 35.73464,
        "longitude": 139.77596
    },
    {
        "city_name": "Nagpur",
        "place_id": 398,
        "latitude": 21.15688,
        "longitude": 79.08206
    },
    {
        "city_name": "Bangkok",
        "place_id": 4,
        "latitude": 13.745595,
        "longitude": 100.53466
    },
    {
        "city_name": "Chennai (Madras)",
        "place_id": 40,
        "latitude": 13.086713,
        "longitude": 80.286385
    },
    {
        "city_name": "Jeonju",
        "place_id": 400,
        "latitude": 35.81467,
        "longitude": 127.14984
    },
    {
        "city_name": "Cisarua",
        "place_id": 4025,
        "latitude": -6.68021,
        "longitude": 106.93243
    },
    {
        "city_name": "Semboku",
        "place_id": 403,
        "latitude": 39.68893,
        "longitude": 140.73193
    },
    {
        "city_name": "Tsuyama",
        "place_id": 404,
        "latitude": 35.05649,
        "longitude": 134.00467
    },
    {
        "city_name": "Dharamsala",
        "place_id": 405,
        "latitude": 32.24194,
        "longitude": 76.32133
    },
    {
        "city_name": "Ogasawara-mura",
        "place_id": 406,
        "latitude": 27.094767,
        "longitude": 142.19327
    },
    {
        "city_name": "Mataram",
        "place_id": 407,
        "latitude": -8.579324,
        "longitude": 116.11739
    },
    {
        "city_name": "Fuefuki",
        "place_id": 408,
        "latitude": 35.63127,
        "longitude": 138.65178
    },
    {
        "city_name": "Guiyang",
        "place_id": 409,
        "latitude": 26.64702,
        "longitude": 106.63041
    },
    {
        "city_name": "New Taipei",
        "place_id": 41,
        "latitude": 25.01111,
        "longitude": 121.44583
    },
    {
        "city_name": "Hakuba-mura",
        "place_id": 410,
        "latitude": 36.708893,
        "longitude": 137.83778
    },
    {
        "city_name": "Nasu-machi",
        "place_id": 411,
        "latitude": 37.01669,
        "longitude": 140.12428
    },
    {
        "city_name": "Munnar",
        "place_id": 412,
        "latitude": 10.0862,
        "longitude": 77.06101
    },
    {
        "city_name": "Ome",
        "place_id": 413,
        "latitude": 35.7856,
        "longitude": 139.25592
    },
    {
        "city_name": "Fuchu",
        "place_id": 414,
        "latitude": 35.672134,
        "longitude": 139.48047
    },
    {
        "city_name": "Chofu",
        "place_id": 415,
        "latitude": 35.65963,
        "longitude": 139.54716
    },
    {
        "city_name": "Urumqi",
        "place_id": 416,
        "latitude": 43.82675,
        "longitude": 87.61685
    },
    {
        "city_name": "Tai'an",
        "place_id": 417,
        "latitude": 36.19994,
        "longitude": 117.08872
    },
    {
        "city_name": "Ulsan",
        "place_id": 418,
        "latitude": 35.53827,
        "longitude": 129.31332
    },
    {
        "city_name": "Hikkaduwa",
        "place_id": 419,
        "latitude": 6.137822,
        "longitude": 80.10169
    },
    {
        "city_name": "Chiyoda",
        "place_id": 42,
        "latitude": 35.693565,
        "longitude": 139.75275
    },
    {
        "city_name": "Obihiro",
        "place_id": 420,
        "latitude": 42.917805,
        "longitude": 143.2046
    },
    {
        "city_name": "Tsukuba",
        "place_id": 421,
        "latitude": 36.212105,
        "longitude": 140.10054
    },
    {
        "city_name": "Kakegawa",
        "place_id": 423,
        "latitude": 34.767582,
        "longitude": 138.01396
    },
    {
        "city_name": "Shibukawa",
        "place_id": 424,
        "latitude": 36.489994,
        "longitude": 139.00612
    },
    {
        "city_name": "Hakusan",
        "place_id": 425,
        "latitude": 36.514065,
        "longitude": 136.57253
    },
    {
        "city_name": "Miura",
        "place_id": 426,
        "latitude": 35.130165,
        "longitude": 139.62733
    },
    {
        "city_name": "Luoyang",
        "place_id": 427,
        "latitude": 34.61792,
        "longitude": 112.45362
    },
    {
        "city_name": "Shimla",
        "place_id": 428,
        "latitude": 31.08848,
        "longitude": 77.17972
    },
    {
        "city_name": "Hualien City",
        "place_id": 429,
        "latitude": 23.994677,
        "longitude": 121.61036
    },
    {
        "city_name": "Colombo",
        "place_id": 43,
        "latitude": 6.934799,
        "longitude": 79.84793
    },
    {
        "city_name": "Yangzhou",
        "place_id": 430,
        "latitude": 32.3935,
        "longitude": 119.41269
    },
    {
        "city_name": "Wajima",
        "place_id": 431,
        "latitude": 37.397747,
        "longitude": 136.90646
    },
    {
        "city_name": "Awaji",
        "place_id": 433,
        "latitude": 34.439693,
        "longitude": 134.91502
    },
    {
        "city_name": "Maniwa",
        "place_id": 434,
        "latitude": 35.07594,
        "longitude": 133.75327
    },
    {
        "city_name": "Komatsu",
        "place_id": 436,
        "latitude": 36.39665,
        "longitude": 136.45543
    },
    {
        "city_name": "Gyoda",
        "place_id": 438,
        "latitude": 36.129353,
        "longitude": 139.45036
    },
    {
        "city_name": "Phnom Penh",
        "place_id": 44,
        "latitude": 11.563291,
        "longitude": 104.92013
    },
    {
        "city_name": "Pyeongchang-gun",
        "place_id": 440,
        "latitude": 37.36902,
        "longitude": 128.39548
    },
    {
        "city_name": "Osaki",
        "place_id": 441,
        "latitude": 38.585426,
        "longitude": 140.97371
    },
    {
        "city_name": "Taitung City",
        "place_id": 443,
        "latitude": 22.758154,
        "longitude": 121.11376
    },
    {
        "city_name": "Bhubaneswar",
        "place_id": 444,
        "latitude": 20.23333,
        "longitude": 85.83333
    },
    {
        "city_name": "Azumino",
        "place_id": 446,
        "latitude": 36.2934,
        "longitude": 137.87799
    },
    {
        "city_name": "Kurobe",
        "place_id": 447,
        "latitude": 36.862556,
        "longitude": 137.44179
    },
    {
        "city_name": "Goto",
        "place_id": 448,
        "latitude": 32.695545,
        "longitude": 128.84062
    },
    {
        "city_name": "Nashik",
        "place_id": 449,
        "latitude": 19.995148,
        "longitude": 73.79864
    },
    {
        "city_name": "Paro",
        "place_id": 450,
        "latitude": 27.47909,
        "longitude": 89.35758
    },
    {
        "city_name": "Kampot",
        "place_id": 451,
        "latitude": 10.609783,
        "longitude": 104.1833
    },
    {
        "city_name": "Iwakuni",
        "place_id": 452,
        "latitude": 34.162434,
        "longitude": 132.17671
    },
    {
        "city_name": "Hirado",
        "place_id": 453,
        "latitude": 33.36021,
        "longitude": 129.55779
    },
    {
        "city_name": "Maizuru",
        "place_id": 454,
        "latitude": 35.450317,
        "longitude": 135.32774
    },
    {
        "city_name": "Yonezawa",
        "place_id": 455,
        "latitude": 37.91934,
        "longitude": 140.12006
    },
    {
        "city_name": "Vung Tau",
        "place_id": 456,
        "latitude": 10.36191,
        "longitude": 107.08564
    },
    {
        "city_name": "Koshu",
        "place_id": 457,
        "latitude": 35.70107,
        "longitude": 138.73058
    },
    {
        "city_name": "Fuji",
        "place_id": 459,
        "latitude": 35.161304,
        "longitude": 138.67444
    },
    {
        "city_name": "Jakarta",
        "place_id": 46,
        "latitude": -6.202333,
        "longitude": 106.84238
    },
    {
        "city_name": "Ogaki",
        "place_id": 460,
        "latitude": 35.35025,
        "longitude": 136.60802
    },
    {
        "city_name": "Nippombashi",
        "place_id": 4601,
        "latitude": 34.666985,
        "longitude": 135.50616
    },
    {
        "city_name": "Kannur",
        "place_id": 461,
        "latitude": 11.870218,
        "longitude": 75.37201
    },
    {
        "city_name": "Huangshan",
        "place_id": 462,
        "latitude": 30.272942,
        "longitude": 118.1411
    },
    {
        "city_name": "Changhua City",
        "place_id": 463,
        "latitude": 24.066668,
        "longitude": 120.53333
    },
    {
        "city_name": "Penampang",
        "place_id": 4647,
        "latitude": 5.877649,
        "longitude": 116.1034
    },
    {
        "city_name": "Gyeongju",
        "place_id": 465,
        "latitude": 35.84246,
        "longitude": 129.21255
    },
    {
        "city_name": "Hitoyoshi",
        "place_id": 466,
        "latitude": 32.21589,
        "longitude": 130.75372
    },
    {
        "city_name": "Ayutthaya",
        "place_id": 468,
        "latitude": 14.355281,
        "longitude": 100.5778
    },
    {
        "city_name": "Tangalle",
        "place_id": 469,
        "latitude": 6.023128,
        "longitude": 80.79253
    },
    {
        "city_name": "Taichung",
        "place_id": 47,
        "latitude": 24.16378,
        "longitude": 120.64714
    },
    {
        "city_name": "Sakata",
        "place_id": 471,
        "latitude": 38.92181,
        "longitude": 139.84563
    },
    {
        "city_name": "Navi Mumbai",
        "place_id": 472,
        "latitude": 19.07185,
        "longitude": 73.01995
    },
    {
        "city_name": "Tachikawa",
        "place_id": 474,
        "latitude": 35.69413,
        "longitude": 139.41545
    },
    {
        "city_name": "Matara",
        "place_id": 475,
        "latitude": 5.943527,
        "longitude": 80.54582
    },
    {
        "city_name": "Suwon",
        "place_id": 476,
        "latitude": 37.25859,
        "longitude": 127.01598
    },
    {
        "city_name": "Tomakomai",
        "place_id": 477,
        "latitude": 42.63706,
        "longitude": 141.5996
    },
    {
        "city_name": "Surat",
        "place_id": 478,
        "latitude": 21.185,
        "longitude": 72.83591
    },
    {
        "city_name": "Mangalore",
        "place_id": 479,
        "latitude": 12.89786,
        "longitude": 74.84545
    },
    {
        "city_name": "Shenzhen",
        "place_id": 48,
        "latitude": 22.54277,
        "longitude": 114.05956
    },
    {
        "city_name": "Ooty (Udhagamandalam)",
        "place_id": 480,
        "latitude": 11.41138,
        "longitude": 76.69518
    },
    {
        "city_name": "Jiujiang",
        "place_id": 481,
        "latitude": 29.70537,
        "longitude": 116.00155
    },
    {
        "city_name": "Funabashi",
        "place_id": 482,
        "latitude": 35.69661,
        "longitude": 139.9849
    },
    {
        "city_name": "Bhopal",
        "place_id": 485,
        "latitude": 23.2527,
        "longitude": 77.43098
    },
    {
        "city_name": "Can Tho",
        "place_id": 486,
        "latitude": 10.034986,
        "longitude": 105.78888
    },
    {
        "city_name": "Hiratsuka",
        "place_id": 487,
        "latitude": 35.327038,
        "longitude": 139.34393
    },
    {
        "city_name": "Tochigi",
        "place_id": 488,
        "latitude": 36.37561,
        "longitude": 139.73596
    },
    {
        "city_name": "Zhoushan",
        "place_id": 489,
        "latitude": 29.9849,
        "longitude": 122.20766
    },
    {
        "city_name": "Da Nang",
        "place_id": 49,
        "latitude": 16.052067,
        "longitude": 108.21558
    },
    {
        "city_name": "Suita",
        "place_id": 490,
        "latitude": 34.763157,
        "longitude": 135.51445
    },
    {
        "city_name": "Miyoshi",
        "place_id": 491,
        "latitude": 34.027214,
        "longitude": 133.80794
    },
    {
        "city_name": "Choeng Thale",
        "place_id": 492,
        "latitude": 7.986781,
        "longitude": 98.301155
    },
    {
        "city_name": "Yantai",
        "place_id": 493,
        "latitude": 37.46069,
        "longitude": 121.44756
    },
    {
        "city_name": "Baguio",
        "place_id": 495,
        "latitude": 16.4167,
        "longitude": 120.6
    },
    {
        "city_name": "Yamanouchi-machi",
        "place_id": 496,
        "latitude": 36.75,
        "longitude": 138.55
    },
    {
        "city_name": "Amakusa",
        "place_id": 497,
        "latitude": 32.458145,
        "longitude": 130.19254
    },
    {
        "city_name": "Toyonaka",
        "place_id": 499,
        "latitude": 34.784256,
        "longitude": 135.47086
    },
    {
        "city_name": "Naha",
        "place_id": 50,
        "latitude": 26.215813,
        "longitude": 127.68597
    },
    {
        "city_name": "Nakatsugawa",
        "place_id": 500,
        "latitude": 35.480774,
        "longitude": 137.5003
    },
    {
        "city_name": "Karaganda",
        "place_id": 501,
        "latitude": 49.86343,
        "longitude": 73.10628
    },
    {
        "city_name": "Gangtok",
        "place_id": 503,
        "latitude": 27.33333,
        "longitude": 88.61667
    },
    {
        "city_name": "Nanao",
        "place_id": 504,
        "latitude": 37.046303,
        "longitude": 136.96558
    },
    {
        "city_name": "Tsushima",
        "place_id": 506,
        "latitude": 34.203995,
        "longitude": 129.2906
    },
    {
        "city_name": "Hikone",
        "place_id": 507,
        "latitude": 35.248135,
        "longitude": 136.24478
    },
    {
        "city_name": "Coron",
        "place_id": 509,
        "latitude": 11.994228,
        "longitude": 120.20779
    },
    {
        "city_name": "Hospet",
        "place_id": 5095,
        "latitude": 15.26883,
        "longitude": 76.39092
    },
    {
        "city_name": "Phuket Town",
        "place_id": 51,
        "latitude": 7.887826,
        "longitude": 98.39068
    },
    {
        "city_name": "Mishima",
        "place_id": 510,
        "latitude": 35.120865,
        "longitude": 138.92328
    },
    {
        "city_name": "Islamabad",
        "place_id": 511,
        "latitude": 33.72148,
        "longitude": 73.04329
    },
    {
        "city_name": "Yomitan-son",
        "place_id": 513,
        "latitude": 26.406124,
        "longitude": 127.74939
    },
    {
        "city_name": "Asuka-mura",
        "place_id": 514,
        "latitude": 34.47104,
        "longitude": 135.82088
    },
    {
        "city_name": "Miyazu",
        "place_id": 517,
        "latitude": 35.536022,
        "longitude": 135.19156
    },
    {
        "city_name": "Visakhapatnam",
        "place_id": 518,
        "latitude": 17.73284,
        "longitude": 83.31787
    },
    {
        "city_name": "Tangerang",
        "place_id": 519,
        "latitude": -6.181857,
        "longitude": 106.63222
    },
    {
        "city_name": "Yangon (Rangoon)",
        "place_id": 52,
        "latitude": 16.794947,
        "longitude": 96.16125
    },
    {
        "city_name": "Sakai",
        "place_id": 520,
        "latitude": 36.171066,
        "longitude": 136.22098
    },
    {
        "city_name": "Nanto",
        "place_id": 521,
        "latitude": 36.50976,
        "longitude": 136.90318
    },
    {
        "city_name": "Lanzhou",
        "place_id": 522,
        "latitude": 36.06152,
        "longitude": 103.83418
    },
    {
        "city_name": "Gwangju",
        "place_id": 523,
        "latitude": 35.159264,
        "longitude": 126.85337
    },
    {
        "city_name": "Guwahati",
        "place_id": 524,
        "latitude": 26.16139,
        "longitude": 91.77259
    },
    {
        "city_name": "Dushanbe",
        "place_id": 525,
        "latitude": 38.55214,
        "longitude": 68.769
    },
    {
        "city_name": "Uwajima",
        "place_id": 526,
        "latitude": 33.222027,
        "longitude": 132.56003
    },
    {
        "city_name": "Kozhikode",
        "place_id": 527,
        "latitude": 11.257541,
        "longitude": 75.78089
    },
    {
        "city_name": "Singaraja",
        "place_id": 528,
        "latitude": -8.111066,
        "longitude": 115.08878
    },
    {
        "city_name": "Ibusuki",
        "place_id": 529,
        "latitude": 31.227974,
        "longitude": 130.65253
    },
    {
        "city_name": "Kathu",
        "place_id": 53,
        "latitude": 7.919824,
        "longitude": 98.33169
    },
    {
        "city_name": "Keelung",
        "place_id": 530,
        "latitude": 25.117914,
        "longitude": 121.72329
    },
    {
        "city_name": "Motobu-cho",
        "place_id": 531,
        "latitude": 26.65854,
        "longitude": 127.909
    },
    {
        "city_name": "Miyakonojo",
        "place_id": 532,
        "latitude": 31.7311,
        "longitude": 131.06674
    },
    {
        "city_name": "Quanzhou",
        "place_id": 533,
        "latitude": 24.87364,
        "longitude": 118.67601
    },
    {
        "city_name": "Dali",
        "place_id": 534,
        "latitude": 25.60634,
        "longitude": 100.26756
    },
    {
        "city_name": "Towada",
        "place_id": 535,
        "latitude": 40.62144,
        "longitude": 141.21184
    },
    {
        "city_name": "Thrissur",
        "place_id": 536,
        "latitude": 10.51082,
        "longitude": 76.21121
    },
    {
        "city_name": "Bintan Regency",
        "place_id": 537,
        "latitude": 1.046676,
        "longitude": 104.49807
    },
    {
        "city_name": "Chiayi",
        "place_id": 539,
        "latitude": 23.48152,
        "longitude": 120.45363
    },
    {
        "city_name": "Himeji",
        "place_id": 54,
        "latitude": 34.825523,
        "longitude": 134.6965
    },
    {
        "city_name": "Thane",
        "place_id": 541,
        "latitude": 19.308062,
        "longitude": 72.854256
    },
    {
        "city_name": "Uruma",
        "place_id": 542,
        "latitude": 26.379177,
        "longitude": 127.85793
    },
    {
        "city_name": "Itoman",
        "place_id": 543,
        "latitude": 26.12498,
        "longitude": 127.66935
    },
    {
        "city_name": "Oda",
        "place_id": 544,
        "latitude": 35.28333,
        "longitude": 132.61667
    },
    {
        "city_name": "Pai",
        "place_id": 546,
        "latitude": 19.28892,
        "longitude": 98.47337
    },
    {
        "city_name": "Qinhuangdao",
        "place_id": 547,
        "latitude": 39.9354,
        "longitude": 119.59951
    },
    {
        "city_name": "Minamiuonuma",
        "place_id": 549,
        "latitude": 37.07759,
        "longitude": 138.88046
    },
    {
        "city_name": "Kaohsiung",
        "place_id": 55,
        "latitude": 22.637423,
        "longitude": 120.36621
    },
    {
        "city_name": "Takarazuka",
        "place_id": 551,
        "latitude": 34.802433,
        "longitude": 135.3499
    },
    {
        "city_name": "Iki",
        "place_id": 552,
        "latitude": 33.786163,
        "longitude": 129.71729
    },
    {
        "city_name": "Amami",
        "place_id": 553,
        "latitude": 28.430834,
        "longitude": 129.7125
    },
    {
        "city_name": "Hachijo-jima Hachijo-machi",
        "place_id": 555,
        "latitude": 33.11037,
        "longitude": 139.79016
    },
    {
        "city_name": "Inuyama",
        "place_id": 556,
        "latitude": 35.380222,
        "longitude": 136.94562
    },
    {
        "city_name": "Indore",
        "place_id": 558,
        "latitude": 22.71623,
        "longitude": 75.86512
    },
    {
        "city_name": "Ena",
        "place_id": 559,
        "latitude": 35.443012,
        "longitude": 137.38454
    },
    {
        "city_name": "Kulai",
        "place_id": 5593,
        "latitude": 1.64327,
        "longitude": 103.61771
    },
    {
        "city_name": "Sendai",
        "place_id": 56,
        "latitude": 38.26337,
        "longitude": 140.88094
    },
    {
        "city_name": "Patan (Lalitpur)",
        "place_id": 561,
        "latitude": 27.66483,
        "longitude": 85.33492
    },
    {
        "city_name": "Noida",
        "place_id": 563,
        "latitude": 28.53519,
        "longitude": 77.38625
    },
    {
        "city_name": "Yongin",
        "place_id": 564,
        "latitude": 37.28331,
        "longitude": 127.15952
    },
    {
        "city_name": "Gangneung",
        "place_id": 567,
        "latitude": 37.763668,
        "longitude": 128.89935
    },
    {
        "city_name": "Koya-cho",
        "place_id": 568,
        "latitude": 34.21441,
        "longitude": 135.60905
    },
    {
        "city_name": "Pune",
        "place_id": 57,
        "latitude": 18.5042,
        "longitude": 73.85309
    },
    {
        "city_name": "Batu",
        "place_id": 570,
        "latitude": -7.87122,
        "longitude": 112.52749
    },
    {
        "city_name": "Angeles City",
        "place_id": 571,
        "latitude": 15.148219,
        "longitude": 120.57865
    },
    {
        "city_name": "Izunokuni",
        "place_id": 572,
        "latitude": 35.038612,
        "longitude": 138.93666
    },
    {
        "city_name": "Dublin",
        "place_id": 57258,
        "latitude": 53.64821,
        "longitude": -8.19616
    },
    {
        "city_name": "Unzen",
        "place_id": 573,
        "latitude": 32.78157,
        "longitude": 130.22676
    },
    {
        "city_name": "Itami",
        "place_id": 576,
        "latitude": 34.779594,
        "longitude": 135.4147
    },
    {
        "city_name": "Tsuruga",
        "place_id": 577,
        "latitude": 35.652615,
        "longitude": 136.06316
    },
    {
        "city_name": "Yawata",
        "place_id": 579,
        "latitude": 34.87659,
        "longitude": 135.70665
    },
    {
        "city_name": "Wuhan",
        "place_id": 58,
        "latitude": 30.59269,
        "longitude": 114.30542
    },
    {
        "city_name": "Toronto",
        "place_id": 58045,
        "latitude": 43.64381,
        "longitude": -79.38554
    },
    {
        "city_name": "Montreal",
        "place_id": 58046,
        "latitude": 45.508022,
        "longitude": -73.560036
    },
    {
        "city_name": "Vancouver",
        "place_id": 58047,
        "latitude": 49.2808,
        "longitude": -123.11672
    },
    {
        "city_name": "Calgary",
        "place_id": 58048,
        "latitude": 51.05011,
        "longitude": -114.07173
    },
    {
        "city_name": "Ottawa",
        "place_id": 58049,
        "latitude": 45.422794,
        "longitude": -75.695625
    },
    {
        "city_name": "Victoria",
        "place_id": 58050,
        "latitude": 48.422108,
        "longitude": -123.36163
    },
    {
        "city_name": "Quebec City",
        "place_id": 58051,
        "latitude": 46.81336,
        "longitude": -71.2126
    },
    {
        "city_name": "Edmonton",
        "place_id": 58052,
        "latitude": 53.54132,
        "longitude": -113.5006
    },
    {
        "city_name": "Winnipeg",
        "place_id": 58053,
        "latitude": 49.879974,
        "longitude": -97.13828
    },
    {
        "city_name": "Hamilton",
        "place_id": 58055,
        "latitude": 43.26217,
        "longitude": -79.89539
    },
    {
        "city_name": "Kelowna",
        "place_id": 58056,
        "latitude": 49.884792,
        "longitude": -119.49397
    },
    {
        "city_name": "Mississauga",
        "place_id": 58057,
        "latitude": 43.59208,
        "longitude": -79.592384
    },
    {
        "city_name": "Niagara Falls",
        "place_id": 58058,
        "latitude": 43.101624,
        "longitude": -79.07091
    },
    {
        "city_name": "Halifax",
        "place_id": 58059,
        "latitude": 44.646557,
        "longitude": -63.574856
    },
    {
        "city_name": "Banff National Park",
        "place_id": 58060,
        "latitude": 51.496845,
        "longitude": -115.928055
    },
    {
        "city_name": "Whistler",
        "place_id": 58061,
        "latitude": 50.11506,
        "longitude": -122.95713
    },
    {
        "city_name": "Niagara-on-the-Lake",
        "place_id": 58062,
        "latitude": 43.254757,
        "longitude": -79.07398
    },
    {
        "city_name": "Richmond",
        "place_id": 58063,
        "latitude": 49.15677,
        "longitude": -123.15703
    },
    {
        "city_name": "London",
        "place_id": 58064,
        "latitude": 42.988914,
        "longitude": -81.2442
    },
    {
        "city_name": "Saskatoon",
        "place_id": 58065,
        "latitude": 52.131123,
        "longitude": -106.65821
    },
    {
        "city_name": "St. John's",
        "place_id": 58066,
        "latitude": 47.561466,
        "longitude": -52.71343
    },
    {
        "city_name": "Kingston",
        "place_id": 58067,
        "latitude": 44.231728,
        "longitude": -76.481064
    },
    {
        "city_name": "Banff",
        "place_id": 58068,
        "latitude": 51.176468,
        "longitude": -115.571
    },
    {
        "city_name": "Windsor",
        "place_id": 58069,
        "latitude": 42.306557,
        "longitude": -83.03147
    },
    {
        "city_name": "Penticton",
        "place_id": 58070,
        "latitude": 49.50023,
        "longitude": -119.59386
    },
    {
        "city_name": "Charlottetown",
        "place_id": 58071,
        "latitude": 46.2369,
        "longitude": -63.129356
    },
    {
        "city_name": "Nanaimo",
        "place_id": 58072,
        "latitude": 49.16555,
        "longitude": -123.93674
    },
    {
        "city_name": "Canmore",
        "place_id": 58073,
        "latitude": 51.08853,
        "longitude": -115.36023
    },
    {
        "city_name": "Barrie",
        "place_id": 58074,
        "latitude": 44.392113,
        "longitude": -79.688385
    },
    {
        "city_name": "Jasper National Park",
        "place_id": 58075,
        "latitude": 53.54624,
        "longitude": -113.49037
    },
    {
        "city_name": "Kamloops",
        "place_id": 58076,
        "latitude": 50.672325,
        "longitude": -120.32635
    },
    {
        "city_name": "Tofino",
        "place_id": 58077,
        "latitude": 49.152634,
        "longitude": -125.90359
    },
    {
        "city_name": "Thunder Bay",
        "place_id": 58078,
        "latitude": 48.381863,
        "longitude": -89.25744
    },
    {
        "city_name": "North Vancouver",
        "place_id": 58079,
        "latitude": 49.32108,
        "longitude": -123.07489
    },
    {
        "city_name": "Burlington",
        "place_id": 58080,
        "latitude": 43.32619,
        "longitude": -79.79858
    },
    {
        "city_name": "Vaughan",
        "place_id": 58081,
        "latitude": 43.64857,
        "longitude": -79.38537
    },
    {
        "city_name": "Saint John",
        "place_id": 58082,
        "latitude": 45.27344,
        "longitude": -66.06415
    },
    {
        "city_name": "Surrey",
        "place_id": 58083,
        "latitude": 49.14832,
        "longitude": -122.76826
    },
    {
        "city_name": "Regina",
        "place_id": 58084,
        "latitude": 50.45677,
        "longitude": -104.62287
    },
    {
        "city_name": "Laval",
        "place_id": 58085,
        "latitude": 45.55172,
        "longitude": -73.74483
    },
    {
        "city_name": "Campbell River",
        "place_id": 58086,
        "latitude": 49.96686,
        "longitude": -125.23086
    },
    {
        "city_name": "Whitehorse",
        "place_id": 58087,
        "latitude": 60.72087,
        "longitude": -135.05318
    },
    {
        "city_name": "Golden",
        "place_id": 58088,
        "latitude": 51.29474,
        "longitude": -116.96304
    },
    {
        "city_name": "Saguenay",
        "place_id": 58089,
        "latitude": 48.425003,
        "longitude": -71.06295
    },
    {
        "city_name": "St. Catharines",
        "place_id": 58090,
        "latitude": 43.15937,
        "longitude": -79.24814
    },
    {
        "city_name": "Kitimat-Stikine District",
        "place_id": 58091,
        "latitude": 56.743816,
        "longitude": -129.7943
    },
    {
        "city_name": "Kitchener",
        "place_id": 58092,
        "latitude": 43.446617,
        "longitude": -80.485565
    },
    {
        "city_name": "Gatineau",
        "place_id": 58093,
        "latitude": 45.47746,
        "longitude": -75.69607
    },
    {
        "city_name": "Guelph",
        "place_id": 58094,
        "latitude": 43.548733,
        "longitude": -80.24555
    },
    {
        "city_name": "Abbotsford",
        "place_id": 58095,
        "latitude": 49.05158,
        "longitude": -122.32885
    },
    {
        "city_name": "Oakville",
        "place_id": 58096,
        "latitude": 43.46558,
        "longitude": -79.68875
    },
    {
        "city_name": "Sudbury",
        "place_id": 58097,
        "latitude": 46.490406,
        "longitude": -80.991135
    },
    {
        "city_name": "Vernon",
        "place_id": 58098,
        "latitude": 50.26569,
        "longitude": -119.27377
    },
    {
        "city_name": "Chilliwack",
        "place_id": 58099,
        "latitude": 49.15632,
        "longitude": -121.9515
    },
    {
        "city_name": "Peterborough",
        "place_id": 58100,
        "latitude": 44.30593,
        "longitude": -78.3195
    },
    {
        "city_name": "Markham",
        "place_id": 58101,
        "latitude": 43.859077,
        "longitude": -79.329185
    },
    {
        "city_name": "Fredericton",
        "place_id": 58102,
        "latitude": 45.96063,
        "longitude": -66.63911
    },
    {
        "city_name": "Brampton",
        "place_id": 58103,
        "latitude": 43.691265,
        "longitude": -79.768745
    },
    {
        "city_name": "Lincoln",
        "place_id": 58104,
        "latitude": 43.178703,
        "longitude": -79.47776
    },
    {
        "city_name": "Burnaby",
        "place_id": 58105,
        "latitude": 49.24455,
        "longitude": -122.973
    },
    {
        "city_name": "Lethbridge",
        "place_id": 58106,
        "latitude": 49.69384,
        "longitude": -112.83374
    },
    {
        "city_name": "Red Deer",
        "place_id": 58107,
        "latitude": 52.26854,
        "longitude": -113.80901
    },
    {
        "city_name": "Chatham-Kent",
        "place_id": 58108,
        "latitude": 42.40465,
        "longitude": -82.19463
    },
    {
        "city_name": "Kawartha Lakes",
        "place_id": 58109,
        "latitude": 44.356735,
        "longitude": -78.74075
    },
    {
        "city_name": "Jasper",
        "place_id": 58110,
        "latitude": 52.88069,
        "longitude": -118.08463
    },
    {
        "city_name": "Squamish",
        "place_id": 58112,
        "latitude": 49.70201,
        "longitude": -123.156425
    },
    {
        "city_name": "Moncton",
        "place_id": 58113,
        "latitude": 46.08837,
        "longitude": -64.77826
    },
    {
        "city_name": "Collingwood",
        "place_id": 58114,
        "latitude": 44.49989,
        "longitude": -80.21683
    },
    {
        "city_name": "Trois-Rivieres",
        "place_id": 58115,
        "latitude": 46.34018,
        "longitude": -72.54503
    },
    {
        "city_name": "Cambridge",
        "place_id": 58116,
        "latitude": 43.361973,
        "longitude": -80.30977
    },
    {
        "city_name": "Yellowknife",
        "place_id": 58117,
        "latitude": 62.45449,
        "longitude": -114.37095
    },
    {
        "city_name": "Levis",
        "place_id": 58118,
        "latitude": 46.795124,
        "longitude": -71.1791
    },
    {
        "city_name": "Brantford",
        "place_id": 58119,
        "latitude": 43.14136,
        "longitude": -80.26174
    },
    {
        "city_name": "Waterloo",
        "place_id": 58121,
        "latitude": 43.46339,
        "longitude": -80.52076
    },
    {
        "city_name": "Sherbrooke",
        "place_id": 58122,
        "latitude": 45.4023,
        "longitude": -71.88374
    },
    {
        "city_name": "Prince George",
        "place_id": 58123,
        "latitude": 53.91245,
        "longitude": -122.74465
    },
    {
        "city_name": "Lunenburg",
        "place_id": 58124,
        "latitude": 44.376957,
        "longitude": -64.3102
    },
    {
        "city_name": "Picton",
        "place_id": 58125,
        "latitude": 44.00984,
        "longitude": -77.1388
    },
    {
        "city_name": "Sault Ste. Marie",
        "place_id": 58127,
        "latitude": 46.519417,
        "longitude": -84.34813
    },
    {
        "city_name": "Sooke",
        "place_id": 58128,
        "latitude": 48.376694,
        "longitude": -123.73764
    },
    {
        "city_name": "Mont Tremblant",
        "place_id": 58129,
        "latitude": 46.11846,
        "longitude": -74.59789
    },
    {
        "city_name": "Osoyoos",
        "place_id": 58130,
        "latitude": 49.03286,
        "longitude": -119.46625
    },
    {
        "city_name": "Revelstoke",
        "place_id": 58131,
        "latitude": 51.007736,
        "longitude": -118.21463
    },
    {
        "city_name": "Courtenay",
        "place_id": 58132,
        "latitude": 49.68768,
        "longitude": -124.99532
    },
    {
        "city_name": "Gros Morne National Park",
        "place_id": 58133,
        "latitude": 49.56195,
        "longitude": -57.83159
    },
    {
        "city_name": "Stratford",
        "place_id": 58134,
        "latitude": 43.372154,
        "longitude": -80.98165
    },
    {
        "city_name": "Oliver",
        "place_id": 58135,
        "latitude": 49.18261,
        "longitude": -119.55045
    },
    {
        "city_name": "West Kelowna",
        "place_id": 58136,
        "latitude": 49.876385,
        "longitude": -119.54781
    },
    {
        "city_name": "Bracebridge",
        "place_id": 58137,
        "latitude": 45.05558,
        "longitude": -79.28864
    },
    {
        "city_name": "Huntsville",
        "place_id": 58138,
        "latitude": 45.32656,
        "longitude": -79.218
    },
    {
        "city_name": "Blue Mountains",
        "place_id": 58139,
        "latitude": 44.563416,
        "longitude": -80.45302
    },
    {
        "city_name": "Port Alberni",
        "place_id": 58140,
        "latitude": 49.233784,
        "longitude": -124.80251
    },
    {
        "city_name": "Medicine Hat",
        "place_id": 58141,
        "latitude": 50.04107,
        "longitude": -110.67809
    },
    {
        "city_name": "Milton",
        "place_id": 58142,
        "latitude": 43.515106,
        "longitude": -79.87702
    },
    {
        "city_name": "Sydney",
        "place_id": 58143,
        "latitude": 46.137104,
        "longitude": -60.191795
    },
    {
        "city_name": "New York City",
        "place_id": 58144,
        "latitude": 40.713238,
        "longitude": -74.00584
    },
    {
        "city_name": "Los Angeles",
        "place_id": 58145,
        "latitude": 34.05106,
        "longitude": -118.23284
    },
    {
        "city_name": "Chicago",
        "place_id": 58146,
        "latitude": 41.878407,
        "longitude": -87.62568
    },
    {
        "city_name": "San Francisco",
        "place_id": 58147,
        "latitude": 37.778934,
        "longitude": -122.41579
    },
    {
        "city_name": "Las Vegas",
        "place_id": 58148,
        "latitude": 36.114304,
        "longitude": -115.17208
    },
    {
        "city_name": "Oahu",
        "place_id": 58149,
        "latitude": 21.422,
        "longitude": -157.9462
    },
    {
        "city_name": "San Diego",
        "place_id": 58150,
        "latitude": 32.71562,
        "longitude": -117.1558
    },
    {
        "city_name": "Orlando",
        "place_id": 58152,
        "latitude": 28.531824,
        "longitude": -81.3973
    },
    {
        "city_name": "Honolulu",
        "place_id": 58153,
        "latitude": 21.308142,
        "longitude": -157.86186
    },
    {
        "city_name": "Seattle",
        "place_id": 58154,
        "latitude": 47.607243,
        "longitude": -122.33324
    },
    {
        "city_name": "New Orleans",
        "place_id": 58156,
        "latitude": 29.947855,
        "longitude": -90.07627
    },
    {
        "city_name": "Miami",
        "place_id": 58157,
        "latitude": 25.781275,
        "longitude": -80.190445
    },
    {
        "city_name": "Portland",
        "place_id": 58158,
        "latitude": 45.51649,
        "longitude": -122.68002
    },
    {
        "city_name": "Washington DC",
        "place_id": 58159,
        "latitude": 38.889603,
        "longitude": -77.009476
    },
    {
        "city_name": "Philadelphia",
        "place_id": 58160,
        "latitude": 39.952362,
        "longitude": -75.163765
    },
    {
        "city_name": "Houston",
        "place_id": 58161,
        "latitude": 29.749317,
        "longitude": -95.364365
    },
    {
        "city_name": "Boston",
        "place_id": 58162,
        "latitude": 42.357277,
        "longitude": -71.05834
    },
    {
        "city_name": "Austin",
        "place_id": 58163,
        "latitude": 30.267223,
        "longitude": -97.742546
    },
    {
        "city_name": "Brooklyn",
        "place_id": 58164,
        "latitude": 40.69246,
        "longitude": -73.99036
    },
    {
        "city_name": "Denver",
        "place_id": 58166,
        "latitude": 39.73958,
        "longitude": -104.98731
    },
    {
        "city_name": "San Antonio",
        "place_id": 58168,
        "latitude": 29.425142,
        "longitude": -98.49308
    },
    {
        "city_name": "Atlanta",
        "place_id": 58169,
        "latitude": 33.75731,
        "longitude": -84.39015
    },
    {
        "city_name": "Charleston",
        "place_id": 58170,
        "latitude": 32.78019,
        "longitude": -79.93252
    },
    {
        "city_name": "Nashville",
        "place_id": 58171,
        "latitude": 36.163338,
        "longitude": -86.77698
    },
    {
        "city_name": "Tucson",
        "place_id": 58172,
        "latitude": 32.217606,
        "longitude": -110.96425
    },
    {
        "city_name": "Dallas",
        "place_id": 58173,
        "latitude": 32.778534,
        "longitude": -96.79938
    },
    {
        "city_name": "Savannah",
        "place_id": 58174,
        "latitude": 32.080093,
        "longitude": -81.09139
    },
    {
        "city_name": "Saint Louis",
        "place_id": 58175,
        "latitude": 38.62752,
        "longitude": -90.19841
    },
    {
        "city_name": "Tampa",
        "place_id": 58176,
        "latitude": 27.943573,
        "longitude": -82.462524
    },
    {
        "city_name": "Fort Lauderdale",
        "place_id": 58177,
        "latitude": 26.125828,
        "longitude": -80.12983
    },
    {
        "city_name": "Santa Fe",
        "place_id": 58178,
        "latitude": 35.687416,
        "longitude": -105.93867
    },
    {
        "city_name": "Baltimore",
        "place_id": 58179,
        "latitude": 39.286587,
        "longitude": -76.611465
    },
    {
        "city_name": "Miami Beach",
        "place_id": 58180,
        "latitude": 25.793701,
        "longitude": -80.13456
    },
    {
        "city_name": "Phoenix",
        "place_id": 58181,
        "latitude": 33.46568,
        "longitude": -112.07159
    },
    {
        "city_name": "Greater Palm Springs",
        "place_id": 58182,
        "latitude": 33.83203,
        "longitude": -116.51452
    },
    {
        "city_name": "Branson",
        "place_id": 58183,
        "latitude": 36.641136,
        "longitude": -93.21934
    },
    {
        "city_name": "Minneapolis",
        "place_id": 58184,
        "latitude": 44.977795,
        "longitude": -93.26244
    },
    {
        "city_name": "Asheville",
        "place_id": 58185,
        "latitude": 35.597942,
        "longitude": -82.55299
    },
    {
        "city_name": "St. Augustine",
        "place_id": 58186,
        "latitude": 29.892288,
        "longitude": -81.314316
    },
    {
        "city_name": "Sarasota",
        "place_id": 58187,
        "latitude": 27.337393,
        "longitude": -82.54139
    },
    {
        "city_name": "Sedona",
        "place_id": 58188,
        "latitude": 34.86598,
        "longitude": -111.76382
    },
    {
        "city_name": "Naples",
        "place_id": 58189,
        "latitude": 26.138308,
        "longitude": -81.79637
    },
    {
        "city_name": "Kailua-Kona",
        "place_id": 58190,
        "latitude": 19.64013,
        "longitude": -155.99568
    },
    {
        "city_name": "Albuquerque",
        "place_id": 58191,
        "latitude": 35.088856,
        "longitude": -106.6491
    },
    {
        "city_name": "Scottsdale",
        "place_id": 58192,
        "latitude": 33.49642,
        "longitude": -111.92447
    },
    {
        "city_name": "Charlotte",
        "place_id": 58193,
        "latitude": 35.226784,
        "longitude": -80.84121
    },
    {
        "city_name": "Milwaukee",
        "place_id": 58195,
        "latitude": 43.039024,
        "longitude": -87.906044
    },
    {
        "city_name": "Louisville",
        "place_id": 58196,
        "latitude": 38.252342,
        "longitude": -85.750656
    },
    {
        "city_name": "Columbus",
        "place_id": 58197,
        "latitude": 39.96199,
        "longitude": -83.00276
    },
    {
        "city_name": "Anchorage",
        "place_id": 58198,
        "latitude": 61.216698,
        "longitude": -149.8692
    },
    {
        "city_name": "Pittsburgh",
        "place_id": 58199,
        "latitude": 40.44079,
        "longitude": -79.99942
    },
    {
        "city_name": "Cat Ba",
        "place_id": 582,
        "latitude": 20.807444,
        "longitude": 107.01242
    },
    {
        "city_name": "Jacksonville",
        "place_id": 58200,
        "latitude": 30.327557,
        "longitude": -81.6628
    },
    {
        "city_name": "Cincinnati",
        "place_id": 58201,
        "latitude": 39.10216,
        "longitude": -84.514015
    },
    {
        "city_name": "Myrtle Beach",
        "place_id": 58202,
        "latitude": 33.694344,
        "longitude": -78.88463
    },
    {
        "city_name": "Lahaina",
        "place_id": 58203,
        "latitude": 20.87817,
        "longitude": -156.67767
    },
    {
        "city_name": "St. Petersburg",
        "place_id": 58204,
        "latitude": 27.771202,
        "longitude": -82.63945
    },
    {
        "city_name": "Indianapolis",
        "place_id": 58205,
        "latitude": 39.76815,
        "longitude": -86.16024
    },
    {
        "city_name": "Santa Barbara",
        "place_id": 58206,
        "latitude": 34.4192,
        "longitude": -119.69858
    },
    {
        "city_name": "Colorado Springs",
        "place_id": 58207,
        "latitude": 38.83343,
        "longitude": -104.82181
    },
    {
        "city_name": "Virginia Beach",
        "place_id": 58208,
        "latitude": 36.848545,
        "longitude": -75.978745
    },
    {
        "city_name": "Cleveland",
        "place_id": 58210,
        "latitude": 41.49958,
        "longitude": -81.69382
    },
    {
        "city_name": "Fort Myers",
        "place_id": 58211,
        "latitude": 26.63963,
        "longitude": -81.86866
    },
    {
        "city_name": "Fort Worth",
        "place_id": 58212,
        "latitude": 32.74796,
        "longitude": -97.32347
    },
    {
        "city_name": "Omaha",
        "place_id": 58213,
        "latitude": 41.25835,
        "longitude": -95.93467
    },
    {
        "city_name": "Sacramento",
        "place_id": 58214,
        "latitude": 38.58021,
        "longitude": -121.49701
    },
    {
        "city_name": "Raleigh",
        "place_id": 58215,
        "latitude": 35.787697,
        "longitude": -78.6411
    },
    {
        "city_name": "Salt Lake City",
        "place_id": 58216,
        "latitude": 40.76258,
        "longitude": -111.90102
    },