{
    "86661": {
        "country_info": {
            "place_id": 86661,
            "name": "India",
            "latitude": 28.584963,
            "longitude": 77.21989,
            "country_name": null,
            "image_url": [
                "https://storage.googleapis.com/mycasavsc.appspot.com/countries/86661/imagen_1.png"
            ]
        },
        "popular_states": [
            {
                "place_id": 86675,
                "name": "Maharashtra",
                "latitude": 19.66328,
                "longitude": 76.241455,
                "country_name": "India",
                "image_url": [
                    "https://storage.googleapis.com/mycasavsc.appspot.com/countries/86675/imagen_1.png"
                ]
            },
            {
                "place_id": 86660,
                "name": "National Capital Territory of Delhi",
                "latitude": 28.6139,
                "longitude": 77.21062,
                "country_name": "India",
                "image_url": [
                    "https://storage.googleapis.com/mycasavsc.appspot.com/countries/86660/imagen_1.png"
                ]
            },
            {
                "place_id": 86706,
                "name": "Uttar Pradesh",
                "latitude": 27.313213,
                "longitude": 80.218506,
                "country_name": "India",
                "image_url": [
                    "https://storage.googleapis.com/mycasavsc.appspot.com/countries/86706/imagen_1.png"
                ]
            },
            {
                "place_id": 86933,
                "name": "Andhra Pradesh",
                "latitude": 16.425549,
                "longitude": 79.27368,
                "country_name": "India",
                "image_url": [
                    "https://storage.googleapis.com/mycasavsc.appspot.com/countries/86933/imagen_1.png"
                ]
            },
            {
                "place_id": 86716,
                "name": "West Bengal",
                "latitude": 22.857195,
                "longitude": 87.86499,
                "country_name": "India",
                "image_url": [
                    "https://storage.googleapis.com/mycasavsc.appspot.com/countries/86716/imagen_1.png"
                ]
            },
            {
                "place_id": 86714,
                "name": "Kerala",
                "latitude": 10.757763,
                "longitude": 76.29822,
                "country_name": "India",
                "image_url": [
                    "https://storage.googleapis.com/mycasavsc.appspot.com/countries/86714/imagen_1.png"
                ]
            },
            {
                "place_id": 86781,
                "name": "Gujarat",
                "latitude": 22.400871,
                "longitude": 71.44226,
                "country_name": "India",
                "image_url": [
                    "https://storage.googleapis.com/mycasavsc.appspot.com/countries/86781/imagen_1.png"
                ]
            },
            {
                "place_id": 86724,
                "name": "Telangana",
                "latitude": 17.422937,
                "longitude": 78.57347,
                "country_name": "India",
                "image_url": [
                    "https://storage.googleapis.com/mycasavsc.appspot.com/countries/86724/imagen_1.png"
                ]
            },
            {
                "place_id": 86816,
                "name": "Haryana",
                "latitude": 29.094578,
                "longitude": 76.34216,
                "country_name": "India",
                "image_url": [
                    "https://storage.googleapis.com/mycasavsc.appspot.com/countries/86816/imagen_1.png"
                ]
            },
            {
                "place_id": 86920,
                "name": "Madhya Pradesh",
                "latitude": 22.93816,
                "longitude": 78.57056,
                "country_name": "India",
                "image_url": [
                    "https://storage.googleapis.com/mycasavsc.appspot.com/countries/86920/imagen_1.png"
                ]
            }
        ]
    }
}