{
    "10165": {
        "country_info": {
            "place_id": 10165,
            "name": "Gibraltar",
            "latitude": 36.14478,
            "longitude": -5.35291,
            "country_name": null,
            "image_url": [
                "https://storage.googleapis.com/mycasavsc.appspot.com/countries/10165/imagen_1.png"
            ]
        },
        "popular_states": []
    },
    "10705": {
        "country_info": {
            "place_id": 10705,
            "name": "Vatican City",
            "latitude": 41.902363,
            "longitude": 12.454423,
            "country_name": null,
            "image_url": [
                "https://storage.googleapis.com/mycasavsc.appspot.com/places/10705/1.jpg",
                "https://storage.googleapis.com/mycasavsc.appspot.com/places/10705/2.jpg",
                "https://storage.googleapis.com/mycasavsc.appspot.com/places/10705/3.jpg",
                "https://storage.googleapis.com/mycasavsc.appspot.com/places/10705/4.jpg",
                "https://storage.googleapis.com/mycasavsc.appspot.com/places/10705.jpg"
            ]
        },
        "popular_states": []
    },
    "135383": {
        "country_info": {
            "place_id": 135383,
            "name": "Brazil",
            "latitude": -15.796401,
            "longitude": -47.90333,
            "country_name": null,
            "image_url": [
                "https://storage.googleapis.com/mycasavsc.appspot.com/countries/135383/imagen_1.png"
            ]
        },
        "popular_states": [
            {
                "place_id": 135384,
                "name": "State of Rio de Janeiro",
                "latitude": -22.91216,
                "longitude": -43.17501,
                "country_name": "Brazil",
                "image_url": [
                    "https://storage.googleapis.com/mycasavsc.appspot.com/countries/135384/imagen_1.png"
                ]
            },
            {
                "place_id": 135381,
                "name": "State of Sao Paulo",
                "latitude": -23.553917,
                "longitude": -46.65229,
                "country_name": "Brazil",
                "image_url": [
                    "https://storage.googleapis.com/mycasavsc.appspot.com/countries/135381/imagen_1.png"
                ]
            },
            {
                "place_id": 135400,
                "name": "State of Rio Grande do Sul",
                "latitude": -29.554344,
                "longitude": -53.13171,
                "country_name": "Brazil",
                "image_url": [
                    "https://storage.googleapis.com/mycasavsc.appspot.com/countries/135400/imagen_1.png"
                ]
            },
            {
                "place_id": 135401,
                "name": "State of Parana",
                "latitude": -24.786736,
                "longitude": -51.65954,
                "country_name": "Brazil",
                "image_url": [
                    "https://storage.googleapis.com/mycasavsc.appspot.com/countries/135401/imagen_1.png"
                ]
            },
            {
                "place_id": 135405,
                "name": "State of Bahia",
                "latitude": -12.9706,
                "longitude": -38.51265,
                "country_name": "Brazil",
                "image_url": [
                    "https://storage.googleapis.com/mycasavsc.appspot.com/countries/135405/imagen_1.png"
                ]
            },
            {
                "place_id": 135412,
                "name": "State of Santa Catarina",
                "latitude": -27.59781,
                "longitude": -48.54818,
                "country_name": "Brazil",
                "image_url": [
                    "https://storage.googleapis.com/mycasavsc.appspot.com/countries/135412/imagen_1.png"
                ]
            },
            {
                "place_id": 135415,
                "name": "State of Minas Gerais",
                "latitude": -19.94536,
                "longitude": -43.93269,
                "country_name": "Brazil",
                "image_url": [
                    "https://storage.googleapis.com/mycasavsc.appspot.com/countries/135415/imagen_1.png"
                ]
            },
            {
                "place_id": 135422,
                "name": "State of Ceara",
                "latitude": -3.71841,
                "longitude": -38.54288,
                "country_name": "Brazil",
                "image_url": [
                    "https://storage.googleapis.com/mycasavsc.appspot.com/countries/135422/imagen_1.png"
                ]
            },
            {
                "place_id": 135419,
                "name": "State of Pernambuco",
                "latitude": -8.05537,
                "longitude": -34.87201,
                "country_name": "Brazil",
                "image_url": [
                    "https://storage.googleapis.com/mycasavsc.appspot.com/countries/135419/imagen_1.png"
                ]
            },
            {
                "place_id": 135442,
                "name": "State of Rio Grande do Norte",
                "latitude": -5.621453,
                "longitude": -36.706238,
                "country_name": "Brazil",
                "image_url": [
                    "https://storage.googleapis.com/mycasavsc.appspot.com/countries/135442/imagen_1.png"
                ]
            }
        ]
    },
    "135385": {
        "country_info": {
            "place_id": 135385,
            "name": "Argentina",
            "latitude": -36.982113,
            "longitude": -63.58571,
            "country_name": null,
            "image_url": [
                "https://storage.googleapis.com/mycasavsc.appspot.com/countries/135385/imagen_1.png"
            ]
        },
        "popular_states": []
    },
    "135391": {
        "country_info": {
            "place_id": 135391,
            "name": "Chile",
            "latitude": -33.456116,
            "longitude": -70.64286,
            "country_name": null,
            "image_url": [
                "https://storage.googleapis.com/mycasavsc.appspot.com/countries/135391/imagen_1.png"
            ]
        },
        "popular_states": []
    },
    "135393": {
        "country_info": {
            "place_id": 135393,
            "name": "Colombia",
            "latitude": 4.054091,
            "longitude": -73.6144,
            "country_name": null,
            "image_url": [
                "https://storage.googleapis.com/mycasavsc.appspot.com/countries/135393/imagen_1.png"
            ]
        },
        "popular_states": []
    },
    "135396": {
        "country_info": {
            "place_id": 135396,
            "name": "Ecuador",
            "latitude": -0.198164,
            "longitude": -78.48364,
            "country_name": null,
            "image_url": [
                "https://storage.googleapis.com/mycasavsc.appspot.com/countries/135396/imagen_1.png"
            ]
        },
        "popular_states": []
    },
    "135408": {
        "country_info": {
            "place_id": 135408,
            "name": "Uruguay",
            "latitude": -32.890144,
            "longitude": -55.75791,
            "country_name": null,
            "image_url": [
                "https://storage.googleapis.com/mycasavsc.appspot.com/countries/135408/imagen_1.png"
            ]
        },
        "popular_states": []
    },
    "135438": {
        "country_info": {
            "place_id": 135438,
            "name": "Bolivia",
            "latitude": -17.511045,
            "longitude": -63.655907,
            "country_name": null,
            "image_url": [
                "https://storage.googleapis.com/mycasavsc.appspot.com/countries/135438/imagen_1.png"
            ]
        },
        "popular_states": []
    },
    "135468": {
        "country_info": {
            "place_id": 135468,
            "name": "Venezuela",
            "latitude": 10.50556,
            "longitude": -66.91771,
            "country_name": null,
            "image_url": [
                "https://storage.googleapis.com/mycasavsc.appspot.com/countries/135468/imagen_1.png"
            ]
        },
        "popular_states": []
    },
    "135498": {
        "country_info": {
            "place_id": 135498,
            "name": "Paraguay",
            "latitude": -25.29833,
            "longitude": -57.62248,
            "country_name": null,
            "image_url": [
                "https://storage.googleapis.com/mycasavsc.appspot.com/countries/135498/imagen_1.png"
            ]
        },
        "popular_states": []
    },
    "135642": {
        "country_info": {
            "place_id": 135642,
            "name": "Suriname",
            "latitude": 5.82031,
            "longitude": -55.16542,
            "country_name": null,
            "image_url": [
                "https://storage.googleapis.com/mycasavsc.appspot.com/countries/135642/imagen_1.png"
            ]
        },
        "popular_states": []
    },
    "135733": {
        "country_info": {
            "place_id": 135733,
            "name": "Guyana",
            "latitude": 6.80855,
            "longitude": -58.16126,
            "country_name": null,
            "image_url": [
                "https://storage.googleapis.com/mycasavsc.appspot.com/countries/135733/imagen_1.png"
            ]
        },
        "popular_states": []
    },
    "135766": {
        "country_info": {
            "place_id": 135766,
            "name": "Falkland Islands",
            "latitude": -51.8274,
            "longitude": -58.972324,
            "country_name": null,
            "image_url": null
        },
        "popular_states": []
    },
    "136048": {
        "country_info": {
            "place_id": 136048,
            "name": "French Guiana",
            "latitude": 3.933,
            "longitude": -53.03348,
            "country_name": null,
            "image_url": [
                "https://storage.googleapis.com/mycasavsc.appspot.com/countries/136048/imagen_1.png"
            ]
        },
        "popular_states": []
    },
    "145918": {
        "country_info": {
            "place_id": 145918,
            "name": "Greenland",
            "latitude": 64.18201,
            "longitude": -51.73125,
            "country_name": null,
            "image_url": [
                "https://storage.googleapis.com/mycasavsc.appspot.com/countries/145918/imagen_1.png"
            ]
        },
        "popular_states": []
    },
    "3651": {
        "country_info": {
            "place_id": 3651,
            "name": "Cocos (Keeling) Islands",
            "latitude": -12.205292,
            "longitude": 96.84394,
            "country_name": null,
            "image_url": [
                "https://storage.googleapis.com/mycasavsc.appspot.com/countries/3651/imagen_1.png"
            ]
        },
        "popular_states": []
    },
    "79304": {
        "country_info": {
            "place_id": 79304,
            "name": "Mauritius",
            "latitude": -20.289555,
            "longitude": 57.544197,
            "country_name": null,
            "image_url": [
                "https://storage.googleapis.com/mycasavsc.appspot.com/countries/79304/imagen_1.png"
            ]
        },
        "popular_states": []
    },
    "81176": {
        "country_info": {
            "place_id": 81176,
            "name": "Dominican Republic",
            "latitude": 18.96735,
            "longitude": -70.38329,
            "country_name": "Caribbean",
            "image_url": [
                "https://storage.googleapis.com/mycasavsc.appspot.com/countries/81176/imagen_1.png"
            ]
        },
        "popular_states": []
    },
    "81178": {
        "country_info": {
            "place_id": 81178,
            "name": "Cuba",
            "latitude": 21.871696,
            "longitude": -78.673096,
            "country_name": "Caribbean",
            "image_url": [
                "https://storage.googleapis.com/mycasavsc.appspot.com/countries/81178/imagen_1.png"
            ]
        },
        "popular_states": []
    },
    "81179": {
        "country_info": {
            "place_id": 81179,
            "name": "Jamaica",
            "latitude": 18.15368,
            "longitude": -77.341,
            "country_name": "Caribbean",
            "image_url": [
                "https://storage.googleapis.com/mycasavsc.appspot.com/countries/81179/imagen_1.png"
            ]
        },
        "popular_states": []
    },
    "81184": {
        "country_info": {
            "place_id": 81184,
            "name": "Guadeloupe",
            "latitude": 16.251593,
            "longitude": -61.579742,
            "country_name": "Caribbean",
            "image_url": [
                "https://storage.googleapis.com/mycasavsc.appspot.com/countries/81184/imagen_1.png"
            ]
        },
        "popular_states": []
    },
    "81185": {
        "country_info": {
            "place_id": 81185,
            "name": "Barbados",
            "latitude": 13.154376,
            "longitude": -59.55551,
            "country_name": "Caribbean",
            "image_url": [
                "https://storage.googleapis.com/mycasavsc.appspot.com/countries/81185/imagen_1.png"
            ]
        },
        "popular_states": []
    },
    "81188": {
        "country_info": {
            "place_id": 81188,
            "name": "Aruba",
            "latitude": 12.506973,
            "longitude": -69.97261,
            "country_name": "Caribbean",
            "image_url": [
                "https://storage.googleapis.com/mycasavsc.appspot.com/countries/81188/imagen_1.png"
            ]
        },
        "popular_states": []
    },
    "81191": {
        "country_info": {
            "place_id": 81191,
            "name": "Martinique",
            "latitude": 14.671598,
            "longitude": -61.022804,
            "country_name": "Caribbean",
            "image_url": [
                "https://storage.googleapis.com/mycasavsc.appspot.com/countries/81191/imagen_1.png"
            ]
        },
        "popular_states": []
    },
    "81192": {
        "country_info": {
            "place_id": 81192,
            "name": "Bermuda",
            "latitude": 32.303673,
            "longitude": -64.752045,
            "country_name": "Caribbean",
            "image_url": [
                "https://storage.googleapis.com/mycasavsc.appspot.com/countries/81192/imagen_1.png"
            ]
        },
        "popular_states": []
    },
    "81193": {
        "country_info": {
            "place_id": 81193,
            "name": "Curacao",
            "latitude": 12.153502,
            "longitude": -68.93002,
            "country_name": "Caribbean",
            "image_url": [
                "https://storage.googleapis.com/mycasavsc.appspot.com/countries/81193/imagen_1.png"
            ]
        },
        "popular_states": []
    },
    "81204": {
        "country_info": {
            "place_id": 81204,
            "name": "Grenada",
            "latitude": 12.135898,
            "longitude": -61.669155,
            "country_name": "Caribbean",
            "image_url": [
                "https://storage.googleapis.com/mycasavsc.appspot.com/countries/81204/imagen_1.png"
            ]
        },
        "popular_states": []
    },
    "81214": {
        "country_info": {
            "place_id": 81214,
            "name": "Dominica",
            "latitude": 15.444415,
            "longitude": -61.35315,
            "country_name": "Caribbean",
            "image_url": [
                "https://storage.googleapis.com/mycasavsc.appspot.com/countries/81214/imagen_1.png"
            ]
        },
        "popular_states": []
    },
    "81238": {
        "country_info": {
            "place_id": 81238,
            "name": "Haiti",
            "latitude": 19.135553,
            "longitude": -72.254555,
            "country_name": "Caribbean",
            "image_url": [
                "https://storage.googleapis.com/mycasavsc.appspot.com/countries/81238/imagen_1.png"
            ]
        },
        "popular_states": []
    },
    "81239": {
        "country_info": {
            "place_id": 81239,
            "name": "Anguilla",
            "latitude": 18.227394,
            "longitude": -63.057404,
            "country_name": "Caribbean",
            "image_url": [
                "https://storage.googleapis.com/mycasavsc.appspot.com/countries/81239/imagen_1.png"
            ]
        },
        "popular_states": []
    },
    "81309": {
        "country_info": {
            "place_id": 81309,
            "name": "Montserrat",
            "latitude": 16.736168,
            "longitude": -62.193604,
            "country_name": "Caribbean",
            "image_url": [
                "https://storage.googleapis.com/mycasavsc.appspot.com/countries/81309/imagen_1.png"
            ]
        },
        "popular_states": []
    },
    "83438": {
        "country_info": {
            "place_id": 83438,
            "name": "Nauru",
            "latitude": -0.54186,
            "longitude": 166.91714,
            "country_name": null,
            "image_url": [
                "https://storage.googleapis.com/mycasavsc.appspot.com/countries/83438/imagen_1.png"
            ]
        },
        "popular_states": []
    },
    "84883": {
        "country_info": {
            "place_id": 84883,
            "name": "Tokelau",
            "latitude": -11.06668,
            "longitude": -171.08401,
            "country_name": null,
            "image_url": [
                "https://storage.googleapis.com/mycasavsc.appspot.com/countries/84883/imagen_1.png"
            ]
        },
        "popular_states": []
    },
    "86647": {
        "country_info": {
            "place_id": 86647,
            "name": "Japan",
            "latitude": 36.21147,
            "longitude": 138.2804,
            "country_name": null,
            "image_url": [
                "https://storage.googleapis.com/mycasavsc.appspot.com/countries/86647/imagen_1.png"
            ]
        },
        "popular_states": [
            {
                "place_id": 86676,
                "name": "Hokkaido",
                "latitude": 43.06451,
                "longitude": 141.3466,
                "country_name": "Japan",
                "image_url": [
                    "https://storage.googleapis.com/mycasavsc.appspot.com/countries/86676/imagen_1.png"
                ]
            },
            {
                "place_id": 86696,
                "name": "Okinawa Prefecture",
                "latitude": 26.211735,
                "longitude": 127.681145,
                "country_name": "Japan",
                "image_url": [
                    "https://storage.googleapis.com/mycasavsc.appspot.com/countries/86696/imagen_1.png"
                ]
            }
        ]
    },
    "86651": {
        "country_info": {
            "place_id": 86651,
            "name": "Thailand",
            "latitude": 13.75336,
            "longitude": 100.50483,
            "country_name": null,
            "image_url": [
                "https://storage.googleapis.com/mycasavsc.appspot.com/countries/86651/imagen_1.png"
            ]
        },
        "popular_states": []
    },
    "86652": {
        "country_info": {
            "place_id": 86652,
            "name": "Philippines",
            "latitude": 14.64771,
            "longitude": 121.0641,
            "country_name": null,
            "image_url": [
                "https://storage.googleapis.com/mycasavsc.appspot.com/countries/86652/imagen_1.png"
            ]
        },
        "popular_states": []
    },
    "86653": {
        "country_info": {
            "place_id": 86653,
            "name": "China",
            "latitude": 34.533016,
            "longitude": 104.67879,
            "country_name": null,
            "image_url": [
                "https://storage.googleapis.com/mycasavsc.appspot.com/countries/86653/imagen_1.png"
            ]
        },
        "popular_states": [
            {
                "place_id": 86657,
                "name": "Shanghai Region",
                "latitude": 31.132074,
                "longitude": 121.279205,
                "country_name": "China",
                "image_url": [
                    "https://storage.googleapis.com/mycasavsc.appspot.com/countries/86657/imagen_1.png"
                ]
            },
            {
                "place_id": 86720,
                "name": "Shaanxi",
                "latitude": 34.34123,
                "longitude": 108.93983,
                "country_name": "China",
                "image_url": [
                    "https://storage.googleapis.com/mycasavsc.appspot.com/countries/86720/imagen_1.png"
                ]
            },
            {
                "place_id": 86689,
                "name": "Guangdong",
                "latitude": 23.12947,
                "longitude": 113.26336,
                "country_name": "China",
                "image_url": [
                    "https://storage.googleapis.com/mycasavsc.appspot.com/countries/86689/imagen_1.png"
                ]
            },
            {
                "place_id": 86722,
                "name": "Jiangsu",
                "latitude": 32.05831,
                "longitude": 118.79648,
                "country_name": "China",
                "image_url": [
                    "https://storage.googleapis.com/mycasavsc.appspot.com/countries/86722/imagen_1.png"
                ]
            },
            {
                "place_id": 86710,
                "name": "Zhejiang",
                "latitude": 30.26361,
                "longitude": 120.12083,
                "country_name": "China",
                "image_url": [
                    "https://storage.googleapis.com/mycasavsc.appspot.com/countries/86710/imagen_1.png"
                ]
            },
            {
                "place_id": 86712,
                "name": "Sichuan",
                "latitude": 30.57209,
                "longitude": 104.06631,
                "country_name": "China",
                "image_url": [
                    "https://storage.googleapis.com/mycasavsc.appspot.com/countries/86712/imagen_1.png"
                ]
            },
            {
                "place_id": 86774,
                "name": "Yunnan",
                "latitude": 24.87964,
                "longitude": 102.8332,
                "country_name": "China",
                "image_url": [
                    "https://storage.googleapis.com/mycasavsc.appspot.com/countries/86774/imagen_1.png"
                ]
            },
            {
                "place_id": 86784,
                "name": "Guangxi",
                "latitude": 22.81622,
                "longitude": 108.36665,
                "country_name": "China",
                "image_url": [
                    "https://storage.googleapis.com/mycasavsc.appspot.com/countries/86784/imagen_1.png"
                ]
            },
            {
                "place_id": 86745,
                "name": "Shandong",
                "latitude": 36.65004,
                "longitude": 117.12101,
                "country_name": "China",
                "image_url": [
                    "https://storage.googleapis.com/mycasavsc.appspot.com/countries/86745/imagen_1.png"
                ]
            },
            {
                "place_id": 86743,
                "name": "Fujian",
                "latitude": 26.07409,
                "longitude": 119.29694,
                "country_name": "China",
                "image_url": [
                    "https://storage.googleapis.com/mycasavsc.appspot.com/countries/86743/imagen_1.png"
                ]
            }
        ]
    },
    "86654": {
        "country_info": {
            "place_id": 86654,
            "name": "Singapore",
            "latitude": 1.354582,
            "longitude": 103.867065,
            "country_name": null,
            "image_url": [
                "https://storage.googleapis.com/mycasavsc.appspot.com/countries/86654/imagen_1.png"
            ]
        },
        "popular_states": []
    },
    "86655": {
        "country_info": {
            "place_id": 86655,
            "name": "Vietnam",
            "latitude": 18.093006,
            "longitude": 105.82561,
            "country_name": null,
            "image_url": [
                "https://storage.googleapis.com/mycasavsc.appspot.com/countries/86655/imagen_1.png"
            ]
        },
        "popular_states": []
    },
    "86656": {
        "country_info": {
            "place_id": 86656,
            "name": "South Korea",
            "latitude": 37.513268,
            "longitude": 127.02285,
            "country_name": null,
            "image_url": [
                "https://storage.googleapis.com/mycasavsc.appspot.com/countries/86656/imagen_1.png"
            ]
        },
        "popular_states": [
            {
                "place_id": 86760,
                "name": "Gyeonggi-do",
                "latitude": 37.2842,
                "longitude": 127.019,
                "country_name": "South Korea",
                "image_url": [
                    "https://storage.googleapis.com/mycasavsc.appspot.com/countries/86760/imagen_1.png"
                ]
            },
            {
                "place_id": 86900,
                "name": "Gangwon-do",
                "latitude": 37.238,
                "longitude": 128.85947,
                "country_name": "South Korea",
                "image_url": [
                    "https://storage.googleapis.com/mycasavsc.appspot.com/countries/86900/imagen_1.png"
                ]
            },
            {
                "place_id": 86913,
                "name": "Gyeongsangbuk-do",
                "latitude": 36.492023,
                "longitude": 128.88895,
                "country_name": "South Korea",
                "image_url": [
                    "https://storage.googleapis.com/mycasavsc.appspot.com/countries/86913/imagen_1.png"
                ]
            },
            {
                "place_id": 86876,
                "name": "Gyeongsangnam-do",
                "latitude": 35.25,
                "longitude": 128.25,
                "country_name": "South Korea",
                "image_url": [
                    "https://storage.googleapis.com/mycasavsc.appspot.com/countries/86876/imagen_1.png"
                ]
            },
            {
                "place_id": 86891,
                "name": "Jeollabuk-do",
                "latitude": 35.825367,
                "longitude": 127.11369,
                "country_name": "South Korea",
                "image_url": [
                    "https://storage.googleapis.com/mycasavsc.appspot.com/countries/86891/imagen_1.png"
                ]
            },
            {
                "place_id": 86960,
                "name": "Jeollanam-do",
                "latitude": 34.766335,
                "longitude": 127.0097,
                "country_name": "South Korea",
                "image_url": [
                    "https://storage.googleapis.com/mycasavsc.appspot.com/countries/86960/imagen_1.png"
                ]
            },
            {
                "place_id": 86994,
                "name": "Chungcheongnam-do",
                "latitude": 36.499928,
                "longitude": 126.7498,
                "country_name": "South Korea",
                "image_url": [
                    "https://storage.googleapis.com/mycasavsc.appspot.com/countries/86994/imagen_1.png"
                ]
            },
            {
                "place_id": 86945,
                "name": "Chungcheongbuk-do",
                "latitude": 36.796917,
                "longitude": 127.71255,
                "country_name": "South Korea",
                "image_url": [
                    "https://storage.googleapis.com/mycasavsc.appspot.com/countries/86945/imagen_1.png"
                ]
            }
        ]
    },
    "86659": {
        "country_info": {
            "place_id": 86659,
            "name": "Cambodia",
            "latitude": 12.606013,
            "longitude": 104.81216,
            "country_name": null,
            "image_url": [
                "https://storage.googleapis.com/mycasavsc.appspot.com/countries/86659/imagen_1.png"
            ]
        },
        "popular_states": []
    },
    "86661": {
        "country_info": {
            "place_id": 86661,
            "name": "India",
            "latitude": 28.584963,
            "longitude": 77.21989,
            "country_name": null,
            "image_url": [
                "https://storage.googleapis.com/mycasavsc.appspot.com/countries/86661/imagen_1.png"
            ]
        },
        "popular_states": [
            {
                "place_id": 86675,
                "name": "Maharashtra",
                "latitude": 19.66328,
                "longitude": 76.241455,
                "country_name": "India",
                "image_url": [
                    "https://storage.googleapis.com/mycasavsc.appspot.com/countries/86675/imagen_1.png"
                ]
            },
            {
                "place_id": 86660,
                "name": "National Capital Territory of Delhi",
                "latitude": 28.6139,
                "longitude": 77.21062,
                "country_name": "India",
                "image_url": [
                    "https://storage.googleapis.com/mycasavsc.appspot.com/countries/86660/imagen_1.png"
                ]
            },
            {
                "place_id": 86706,
                "name": "Uttar Pradesh",
                "latitude": 27.313213,
                "longitude": 80.218506,
                "country_name": "India",
                "image_url": [
                    "https://storage.googleapis.com/mycasavsc.appspot.com/countries/86706/imagen_1.png"
                ]
            },
            {
                "place_id": 86933,
                "name": "Andhra Pradesh",
                "latitude": 16.425549,
                "longitude": 79.27368,
                "country_name": "India",
                "image_url": [
                    "https://storage.googleapis.com/mycasavsc.appspot.com/countries/86933/imagen_1.png"
                ]
            },
            {
                "place_id": 86716,
                "name": "West Bengal",
                "latitude": 22.857195,
                "longitude": 87.86499,
                "country_name": "India",
                "image_url": [
                    "https://storage.googleapis.com/mycasavsc.appspot.com/countries/86716/imagen_1.png"
                ]
            },
            {
                "place_id": 86714,
                "name": "Kerala",
                "latitude": 10.757763,
                "longitude": 76.29822,
                "country_name": "India",
                "image_url": [
                    "https://storage.googleapis.com/mycasavsc.appspot.com/countries/86714/imagen_1.png"
                ]
            },
            {
                "place_id": 86781,
                "name": "Gujarat",
                "latitude": 22.400871,
                "longitude": 71.44226,
                "country_name": "India",
                "image_url": [
                    "https://storage.googleapis.com/mycasavsc.appspot.com/countries/86781/imagen_1.png"
                ]
            },
            {
                "place_id": 86724,
                "name": "Telangana",
                "latitude": 17.422937,
                "longitude": 78.57347,
                "country_name": "India",
                "image_url": [
                    "https://storage.googleapis.com/mycasavsc.appspot.com/countries/86724/imagen_1.png"
                ]
            },
            {
                "place_id": 86816,
                "name": "Haryana",
                "latitude": 29.094578,
                "longitude": 76.34216,
                "country_name": "India",
                "image_url": [
                    "https://storage.googleapis.com/mycasavsc.appspot.com/countries/86816/imagen_1.png"
                ]
            },
            {
                "place_id": 86920,
                "name": "Madhya Pradesh",
                "latitude": 22.93816,
                "longitude": 78.57056,
                "country_name": "India",
                "image_url": [
                    "https://storage.googleapis.com/mycasavsc.appspot.com/countries/86920/imagen_1.png"
                ]
            }
        ]
    },
    "86663": {
        "country_info": {
            "place_id": 86663,
            "name": "Indonesia",
            "latitude": -6.235739,
            "longitude": 106.81341,
            "country_name": null,
            "image_url": [
                "https://storage.googleapis.com/mycasavsc.appspot.com/countries/86663/imagen_1.png"
            ]
        },
        "popular_states": []
    },
    "86667": {
        "country_info": {
            "place_id": 86667,
            "name": "Nepal",
            "latitude": 28.336855,
            "longitude": 84.03612,
            "country_name": null,
            "image_url": [
                "https://storage.googleapis.com/mycasavsc.appspot.com/countries/86667/imagen_1.png"
            ]
        },
        "popular_states": []
    },
    "86668": {
        "country_info": {
            "place_id": 86668,
            "name": "Taiwan",
            "latitude": 25.0374,
            "longitude": 121.56355,
            "country_name": null,
            "image_url": [
                "https://storage.googleapis.com/mycasavsc.appspot.com/countries/86668/imagen_1.png"
            ]
        },
        "popular_states": []
    },
    "86683": {
        "country_info": {
            "place_id": 86683,
            "name": "Malaysia",
            "latitude": 3.480287,
            "longitude": 102.47243,
            "country_name": null,
            "image_url": [
                "https://storage.googleapis.com/mycasavsc.appspot.com/countries/86683/imagen_1.png"
            ]
        },
        "popular_states": [
            {
                "place_id": 86843,
                "name": "Selangor",
                "latitude": 3.23234,
                "longitude": 101.47347,
                "country_name": "Malaysia",
                "image_url": [
                    "https://storage.googleapis.com/mycasavsc.appspot.com/countries/86843/imagen_1.png"
                ]
            },
            {
                "place_id": 86826,
                "name": "Sarawak",
                "latitude": 2.310777,
                "longitude": 112.50697,
                "country_name": "Malaysia",
                "image_url": [
                    "https://storage.googleapis.com/mycasavsc.appspot.com/countries/86826/imagen_1.png"
                ]
            },
            {
                "place_id": 87085,
                "name": "Pahang",
                "latitude": 3.62074,
                "longitude": 102.59239,
                "country_name": "Malaysia",
                "image_url": [
                    "https://storage.googleapis.com/mycasavsc.appspot.com/countries/87085/imagen_1.png"
                ]
            },
            {
                "place_id": 86769,
                "name": "Sabah",
                "latitude": 5.176992,
                "longitude": 117.13721,
                "country_name": "Malaysia",
                "image_url": [
                    "https://storage.googleapis.com/mycasavsc.appspot.com/countries/86769/imagen_1.png"
                ]
            },
            {
                "place_id": 87050,
                "name": "Terengganu",
                "latitude": 5.327193,
                "longitude": 103.1371,
                "country_name": "Malaysia",
                "image_url": [
                    "https://storage.googleapis.com/mycasavsc.appspot.com/countries/87050/imagen_1.png"
                ]
            },
            {
                "place_id": 87212,
                "name": "Negeri Sembilan",
                "latitude": 2.84071,
                "longitude": 102.2244,
                "country_name": "Malaysia",
                "image_url": [
                    "https://storage.googleapis.com/mycasavsc.appspot.com/countries/87212/imagen_1.png"
                ]
            },
            {
                "place_id": 87177,
                "name": "Kelantan",
                "latitude": 6.13544,
                "longitude": 102.23671,
                "country_name": "Malaysia",
                "image_url": [
                    "https://storage.googleapis.com/mycasavsc.appspot.com/countries/87177/imagen_1.png"
                ]
            },
            {
                "place_id": 87960,
                "name": "Perlis",
                "latitude": 6.43986,
                "longitude": 100.19393,
                "country_name": "Malaysia",
                "image_url": [
                    "https://storage.googleapis.com/mycasavsc.appspot.com/countries/87960/imagen_1.png"
                ]
            },
            {
                "place_id": 86771,
                "name": "Kedah",
                "latitude": 6.13164,
                "longitude": 100.38878,
                "country_name": "Malaysia",
                "image_url": [
                    "https://storage.googleapis.com/mycasavsc.appspot.com/countries/86771/imagen_1.png"
                ]
            },
            {
                "place_id": 86845,
                "name": "Johor",
                "latitude": 1.889306,
                "longitude": 103.42438,
                "country_name": "Malaysia",
                "image_url": [
                    "https://storage.googleapis.com/mycasavsc.appspot.com/countries/86845/imagen_1.png"
                ]
            }
        ]
    },
    "86693": {
        "country_info": {
            "place_id": 86693,
            "name": "Sri Lanka",
            "latitude": 7.324667,
            "longitude": 80.65797,
            "country_name": null,
            "image_url": [
                "https://storage.googleapis.com/mycasavsc.appspot.com/countries/86693/imagen_1.png"
            ]
        },
        "popular_states": []
    },
    "86698": {
        "country_info": {
            "place_id": 86698,
            "name": "Myanmar",
            "latitude": 18.656042,
            "longitude": 96.28756,
            "country_name": null,
            "image_url": [
                "https://storage.googleapis.com/mycasavsc.appspot.com/countries/86698/imagen_1.png"
            ]
        },
        "popular_states": [
            {
                "place_id": 87049,
                "name": "Shan State",
                "latitude": 22,
                "longitude": 98,
                "country_name": "Myanmar",
                "image_url": [
                    "https://storage.googleapis.com/mycasavsc.appspot.com/countries/87049/imagen_1.png"
                ]
            },
            {
                "place_id": 88006,
                "name": "Kayah State",
                "latitude": 19.171753,
                "longitude": 97.34305,
                "country_name": "Myanmar",
                "image_url": [
                    "https://storage.googleapis.com/mycasavsc.appspot.com/countries/88006/imagen_1.png"
                ]
            },
            {
                "place_id": 88275,
                "name": "Chin State",
                "latitude": 22.048475,
                "longitude": 93.412895,
                "country_name": "Myanmar",
                "image_url": [
                    "https://storage.googleapis.com/mycasavsc.appspot.com/countries/88275/imagen_1.png"
                ]
            }
        ]
    },
    "86719": {
        "country_info": {
            "place_id": 86719,
            "name": "Armenia",
            "latitude": 40.283585,
            "longitude": 44.611225,
            "country_name": null,
            "image_url": [
                "https://storage.googleapis.com/mycasavsc.appspot.com/countries/86719/imagen_1.png"
            ]
        },
        "popular_states": []
    },
    "86729": {
        "country_info": {
            "place_id": 86729,
            "name": "Azerbaijan",
            "latitude": 40.374313,
            "longitude": 49.79654,
            "country_name": null,
            "image_url": [
                "https://storage.googleapis.com/mycasavsc.appspot.com/countries/86729/imagen_1.png"
            ]
        },
        "popular_states": []
    },
    "86731": {
        "country_info": {
            "place_id": 86731,
            "name": "Kazakhstan",
            "latitude": 48.20415,
            "longitude": 67.75029,
            "country_name": null,
            "image_url": [
                "https://storage.googleapis.com/mycasavsc.appspot.com/countries/86731/imagen_1.png"
            ]
        },
        "popular_states": []
    },
    "86772": {
        "country_info": {
            "place_id": 86772,
            "name": "Mongolia",
            "latitude": 46.816334,
            "longitude": 103.08875,
            "country_name": null,
            "image_url": [
                "https://storage.googleapis.com/mycasavsc.appspot.com/countries/86772/imagen_1.png"
            ]
        },
        "popular_states": []
    },
    "86776": {
        "country_info": {
            "place_id": 86776,
            "name": "Kyrgyzstan",
            "latitude": 41.385212,
            "longitude": 74.58069,
            "country_name": null,
            "image_url": [
                "https://storage.googleapis.com/mycasavsc.appspot.com/countries/86776/imagen_1.png"
            ]
        },
        "popular_states": []
    },
    "86779": {
        "country_info": {
            "place_id": 86779,
            "name": "Brunei Darussalam",
            "latitude": 4.943197,
            "longitude": 114.95098,
            "country_name": null,
            "image_url": [
                "https://storage.googleapis.com/mycasavsc.appspot.com/countries/86779/imagen_1.png"
            ]
        },
        "popular_states": []
    },
    "86797": {
        "country_info": {
            "place_id": 86797,
            "name": "Laos",
            "latitude": 18.944714,
            "longitude": 103.38158,
            "country_name": null,
            "image_url": [
                "https://storage.googleapis.com/mycasavsc.appspot.com/countries/86797/imagen_1.png"
            ]
        },
        "popular_states": []
    },
    "86819": {
        "country_info": {
            "place_id": 86819,
            "name": "Bhutan",
            "latitude": 27.407593,
            "longitude": 90.42577,
            "country_name": null,
            "image_url": [
                "https://storage.googleapis.com/mycasavsc.appspot.com/countries/86819/imagen_1.png"
            ]
        },
        "popular_states": []
    },
    "86831": {
        "country_info": {
            "place_id": 86831,
            "name": "Pakistan",
            "latitude": 33.70768,
            "longitude": 73.07048,
            "country_name": null,
            "image_url": [
                "https://storage.googleapis.com/mycasavsc.appspot.com/countries/86831/imagen_1.png"
            ]
        },
        "popular_states": []
    },
    "86851": {
        "country_info": {
            "place_id": 86851,
            "name": "Bangladesh",
            "latitude": 24.189028,
            "longitude": 90.22033,
            "country_name": null,
            "image_url": [
                "https://storage.googleapis.com/mycasavsc.appspot.com/countries/86851/imagen_1.png"
            ]
        },
        "popular_states": []
    },
    "86865": {
        "country_info": {
            "place_id": 86865,
            "name": "Uzbekistan",
            "latitude": 40.29862,
            "longitude": 64.05349,
            "country_name": null,
            "image_url": [
                "https://storage.googleapis.com/mycasavsc.appspot.com/countries/86865/imagen_1.png"
            ]
        },
        "popular_states": []
    },
    "86938": {
        "country_info": {
            "place_id": 86938,
            "name": "Tajikistan",
            "latitude": 38.56791,
            "longitude": 68.77156,
            "country_name": null,
            "image_url": [
                "https://storage.googleapis.com/mycasavsc.appspot.com/countries/86938/imagen_1.png"
            ]
        },
        "popular_states": []
    },
    "86983": {
        "country_info": {
            "place_id": 86983,
            "name": "Maldives",
            "latitude": 4.164185,
            "longitude": 73.494995,
            "country_name": null,
            "image_url": [
                "https://storage.googleapis.com/mycasavsc.appspot.com/countries/86983/imagen_1.png"
            ]
        },
        "popular_states": []
    },
    "87077": {
        "country_info": {
            "place_id": 87077,
            "name": "North Korea",
            "latitude": 40.093075,
            "longitude": 127.37267,
            "country_name": null,
            "image_url": [
                "https://storage.googleapis.com/mycasavsc.appspot.com/countries/87077/imagen_1.png"
            ]
        },
        "popular_states": []
    },
    "87139": {
        "country_info": {
            "place_id": 87139,
            "name": "Timor-Leste",
            "latitude": -8.906322,
            "longitude": 125.70403,
            "country_name": null,
            "image_url": [
                "https://storage.googleapis.com/mycasavsc.appspot.com/countries/87139/imagen_1.png"
            ]
        },
        "popular_states": []
    },
    "87175": {
        "country_info": {
            "place_id": 87175,
            "name": "Turkmenistan",
            "latitude": 38.985867,
            "longitude": 58.91204,
            "country_name": null,
            "image_url": [
                "https://storage.googleapis.com/mycasavsc.appspot.com/countries/87175/imagen_1.png"
            ]
        },
        "popular_states": []
    },
    "87389": {
        "country_info": {
            "place_id": 87389,
            "name": "Afghanistan",
            "latitude": 34.520077,
            "longitude": 69.12994,
            "country_name": null,
            "image_url": [
                "https://storage.googleapis.com/mycasavsc.appspot.com/countries/87389/imagen_1.png"
            ]
        },
        "popular_states": []
    },
    "88352": {
        "country_info": {
            "place_id": 88352,
            "name": "Italy",
            "latitude": 41.90305,
            "longitude": 12.407919,
            "country_name": null,
            "image_url": [
                "https://storage.googleapis.com/mycasavsc.appspot.com/countries/88352/imagen_1.png"
            ]
        },
        "popular_states": []
    },
    "88358": {
        "country_info": {
            "place_id": 88358,
            "name": "France",
            "latitude": 48.864765,
            "longitude": 2.343772,
            "country_name": null,
            "image_url": [
                "https://storage.googleapis.com/mycasavsc.appspot.com/countries/88358/imagen_1.png"
            ]
        },
        "popular_states": []
    },
    "88359": {
        "country_info": {
            "place_id": 88359,
            "name": "United Kingdom",
            "latitude": 54.94037,
            "longitude": -2.746438,
            "country_name": null,
            "image_url": [
                "https://storage.googleapis.com/mycasavsc.appspot.com/countries/88359/imagen_1.png"
            ]
        },
        "popular_states": []
    },
    "88360": {
        "country_info": {
            "place_id": 88360,
            "name": "Russia",
            "latitude": 62.1873,
            "longitude": 99.34219,
            "country_name": null,
            "image_url": [
                "https://storage.googleapis.com/mycasavsc.appspot.com/countries/88360/imagen_1.png"
            ]
        },
        "popular_states": []
    },
    "88362": {
        "country_info": {
            "place_id": 88362,
            "name": "Spain",
            "latitude": 40.4107,
            "longitude": -3.727419,
            "country_name": null,
            "image_url": [
                "https://storage.googleapis.com/mycasavsc.appspot.com/countries/88362/imagen_1.png"
            ]
        },
        "popular_states": []
    },
    "88366": {
        "country_info": {
            "place_id": 88366,
            "name": "Czech Republic",
            "latitude": 50.047222,
            "longitude": 14.450684,
            "country_name": null,
            "image_url": [
                "https://storage.googleapis.com/mycasavsc.appspot.com/countries/88366/imagen_1.png"
            ]
        },
        "popular_states": []
    },
    "88367": {
        "country_info": {
            "place_id": 88367,
            "name": "Turkiye",
            "latitude": 38.987785,
            "longitude": 35.511177,
            "country_name": null,
            "image_url": [
                "https://storage.googleapis.com/mycasavsc.appspot.com/countries/88367/imagen_1.png"
            ]
        },
        "popular_states": []
    },
    "88368": {
        "country_info": {
            "place_id": 88368,
            "name": "Germany",
            "latitude": 52.508797,
            "longitude": 13.365262,
            "country_name": null,
            "image_url": [
                "https://storage.googleapis.com/mycasavsc.appspot.com/countries/88368/imagen_1.png"
            ]
        },
        "popular_states": [
            {
                "place_id": 88457,
                "name": "North Rhine-Westphalia",
                "latitude": 51.21564,
                "longitude": 6.77605,
                "country_name": "Germany",
                "image_url": [
                    "https://storage.googleapis.com/mycasavsc.appspot.com/countries/88457/imagen_1.png"
                ]
            },
            {
                "place_id": 88528,
                "name": "Baden-Wurttemberg",
                "latitude": 48.629276,
                "longitude": 9.2276,
                "country_name": "Germany",
                "image_url": [
                    "https://storage.googleapis.com/mycasavsc.appspot.com/countries/88528/imagen_1.png"
                ]
            },
            {
                "place_id": 88416,
                "name": "Hesse",
                "latitude": 50.583237,
                "longitude": 9.116821,
                "country_name": "Germany",
                "image_url": [
                    "https://storage.googleapis.com/mycasavsc.appspot.com/countries/88416/imagen_1.png"
                ]
            },
            {
                "place_id": 88504,
                "name": "Saxony",
                "latitude": 51.05364,
                "longitude": 13.74082,
                "country_name": "Germany",
                "image_url": [
                    "https://storage.googleapis.com/mycasavsc.appspot.com/countries/88504/imagen_1.png"
                ]
            },
            {
                "place_id": 88629,
                "name": "Rhineland-Palatinate",
                "latitude": 49.97949,
                "longitude": 7.32605,
                "country_name": "Germany",
                "image_url": [
                    "https://storage.googleapis.com/mycasavsc.appspot.com/countries/88629/imagen_1.png"
                ]
            },
            {
                "place_id": 88559,
                "name": "Lower Saxony",
                "latitude": 52.606384,
                "longitude": 9.859314,
                "country_name": "Germany",
                "image_url": [
                    "https://storage.googleapis.com/mycasavsc.appspot.com/countries/88559/imagen_1.png"
                ]
            },
            {
                "place_id": 88797,
                "name": "Brandenburg",
                "latitude": 52.40746,
                "longitude": 12.563124,
                "country_name": "Germany",
                "image_url": [
                    "https://storage.googleapis.com/mycasavsc.appspot.com/countries/88797/imagen_1.png"
                ]
            },
            {
                "place_id": 88721,
                "name": "Schleswig-Holstein",
                "latitude": 54.091618,
                "longitude": 9.797973,
                "country_name": "Germany",
                "image_url": [
                    "https://storage.googleapis.com/mycasavsc.appspot.com/countries/88721/imagen_1.png"
                ]
            },
            {
                "place_id": 88627,
                "name": "State of Bremen",
                "latitude": 53.0751,
                "longitude": 8.80469,
                "country_name": "Germany",
                "image_url": [
                    "https://storage.googleapis.com/mycasavsc.appspot.com/countries/88627/imagen_1.png"
                ]
            },
            {
                "place_id": 88641,
                "name": "Mecklenburg-West Pomerania",
                "latitude": 53.660915,
                "longitude": 12.545471,
                "country_name": "Germany",
                "image_url": [
                    "https://storage.googleapis.com/mycasavsc.appspot.com/countries/88641/imagen_1.png"
                ]
            }
        ]
    },
    "88373": {
        "country_info": {
            "place_id": 88373,
            "name": "The Netherlands",
            "latitude": 52.10769,
            "longitude": 5.40103,
            "country_name": null,
            "image_url": [
                "https://storage.googleapis.com/mycasavsc.appspot.com/countries/88373/imagen_1.png"
            ]
        },
        "popular_states": []
    },
    "88375": {
        "country_info": {
            "place_id": 88375,
            "name": "Greece",
            "latitude": 37.983345,
            "longitude": 23.721367,
            "country_name": null,
            "image_url": [
                "https://storage.googleapis.com/mycasavsc.appspot.com/countries/88375/imagen_1.png"
            ]
        },
        "popular_states": []
    },
    "88380": {
        "country_info": {
            "place_id": 88380,
            "name": "Hungary",
            "latitude": 47.49988,
            "longitude": 19.063824,
            "country_name": null,
            "image_url": [
                "https://storage.googleapis.com/mycasavsc.appspot.com/countries/88380/imagen_1.png"
            ]
        },
        "popular_states": []
    },
    "88384": {
        "country_info": {
            "place_id": 88384,
            "name": "Austria",
            "latitude": 48.204174,
            "longitude": 16.35827,
            "country_name": null,
            "image_url": [
                "https://storage.googleapis.com/mycasavsc.appspot.com/countries/88384/imagen_1.png"
            ]
        },
        "popular_states": []
    },
    "88386": {
        "country_info": {
            "place_id": 88386,
            "name": "Ireland",
            "latitude": 53.329136,
            "longitude": -6.28494,
            "country_name": null,
            "image_url": [
                "https://storage.googleapis.com/mycasavsc.appspot.com/countries/88386/imagen_1.png"
            ]
        },
        "popular_states": []
    },
    "88394": {
        "country_info": {
            "place_id": 88394,
            "name": "Ukraine",
            "latitude": 49.16265,
            "longitude": 31.968395,
            "country_name": null,
            "image_url": [
                "https://storage.googleapis.com/mycasavsc.appspot.com/countries/88394/imagen_1.png"
            ]
        },
        "popular_states": []
    },
    "88402": {
        "country_info": {
            "place_id": 88402,
            "name": "Denmark",
            "latitude": 55.66734,
            "longitude": 12.381042,
            "country_name": null,
            "image_url": [
                "https://storage.googleapis.com/mycasavsc.appspot.com/countries/88402/imagen_1.png"
            ]
        },
        "popular_states": []
    },
    "88403": {
        "country_info": {
            "place_id": 88403,
            "name": "Poland",
            "latitude": 52.23035,
            "longitude": 20.984167,
            "country_name": null,
            "image_url": [
                "https://storage.googleapis.com/mycasavsc.appspot.com/countries/88403/imagen_1.png"
            ]
        },
        "popular_states": []
    },
    "88405": {
        "country_info": {
            "place_id": 88405,
            "name": "Romania",
            "latitude": 44.436424,
            "longitude": 26.1039,
            "country_name": null,
            "image_url": [
                "https://storage.googleapis.com/mycasavsc.appspot.com/countries/88405/imagen_1.png"
            ]
        },
        "popular_states": []
    },
    "88407": {
        "country_info": {
            "place_id": 88407,
            "name": "Malta",
            "latitude": 35.892,
            "longitude": 14.42979,
            "country_name": null,
            "image_url": [
                "https://storage.googleapis.com/mycasavsc.appspot.com/countries/88407/imagen_1.png"
            ]
        },
        "popular_states": []
    },
    "88408": {
        "country_info": {
            "place_id": 88408,
            "name": "Belgium",
            "latitude": 50.826263,
            "longitude": 4.377831,
            "country_name": null,
            "image_url": [
                "https://storage.googleapis.com/mycasavsc.appspot.com/countries/88408/imagen_1.png"
            ]
        },
        "popular_states": []
    },
    "88419": {
        "country_info": {
            "place_id": 88419,
            "name": "Iceland",
            "latitude": 64.11361,
            "longitude": -21.86044,
            "country_name": null,
            "image_url": [
                "https://storage.googleapis.com/mycasavsc.appspot.com/countries/88419/imagen_1.png"
            ]
        },
        "popular_states": []
    },
    "88420": {
        "country_info": {
            "place_id": 88420,
            "name": "Georgia",
            "latitude": 42.092537,
            "longitude": 43.428288,
            "country_name": null,
            "image_url": [
                "https://storage.googleapis.com/mycasavsc.appspot.com/countries/88420/imagen_1.png"
            ]
        },
        "popular_states": []
    },
    "88423": {
        "country_info": {
            "place_id": 88423,
            "name": "Latvia",
            "latitude": 56.854122,
            "longitude": 24.834873,
            "country_name": null,
            "image_url": [
                "https://storage.googleapis.com/mycasavsc.appspot.com/countries/88423/imagen_1.png"
            ]
        },
        "popular_states": []
    },
    "88432": {
        "country_info": {
            "place_id": 88432,
            "name": "Norway",
            "latitude": 60.047348,
            "longitude": 10.440486,
            "country_name": null,
            "image_url": [
                "https://storage.googleapis.com/mycasavsc.appspot.com/countries/88432/imagen_1.png"
            ]
        },
        "popular_states": []
    },
    "88434": {
        "country_info": {
            "place_id": 88434,
            "name": "Finland",
            "latitude": 63.99913,
            "longitude": 27.2175,
            "country_name": null,
            "image_url": [
                "https://storage.googleapis.com/mycasavsc.appspot.com/countries/88434/imagen_1.png"
            ]
        },
        "popular_states": []
    },
    "88437": {
        "country_info": {
            "place_id": 88437,
            "name": "Switzerland",
            "latitude": 46.75308,
            "longitude": 8.473175,
            "country_name": null,
            "image_url": [
                "https://storage.googleapis.com/mycasavsc.appspot.com/countries/88437/imagen_1.png"
            ]
        },
        "popular_states": []
    },
    "88438": {
        "country_info": {
            "place_id": 88438,
            "name": "Croatia",
            "latitude": 45.81473,
            "longitude": 15.956664,
            "country_name": null,
            "image_url": [
                "https://storage.googleapis.com/mycasavsc.appspot.com/countries/88438/imagen_1.png"
            ]
        },
        "popular_states": []
    },
    "88445": {
        "country_info": {
            "place_id": 88445,
            "name": "Sweden",
            "latitude": 59.84456,
            "longitude": 16.32489,
            "country_name": null,
            "image_url": [
                "https://storage.googleapis.com/mycasavsc.appspot.com/countries/88445/imagen_1.png"
            ]
        },
        "popular_states": []
    },
    "88449": {
        "country_info": {
            "place_id": 88449,
            "name": "Bulgaria",
            "latitude": 42.69998,
            "longitude": 23.321693,
            "country_name": null,
            "image_url": [
                "https://storage.googleapis.com/mycasavsc.appspot.com/countries/88449/imagen_1.png"
            ]
        },
        "popular_states": []
    },
    "88455": {
        "country_info": {
            "place_id": 88455,
            "name": "Estonia",
            "latitude": 59.43833,
            "longitude": 24.75026,
            "country_name": null,
            "image_url": [
                "https://storage.googleapis.com/mycasavsc.appspot.com/countries/88455/imagen_1.png"
            ]
        },
        "popular_states": []
    },
    "88464": {
        "country_info": {
            "place_id": 88464,
            "name": "Serbia",
            "latitude": 44.792244,
            "longitude": 20.45528,
            "country_name": null,
            "image_url": [
                "https://storage.googleapis.com/mycasavsc.appspot.com/countries/88464/imagen_1.png"
            ]
        },
        "popular_states": []
    },
    "88477": {
        "country_info": {
            "place_id": 88477,
            "name": "Lithuania",
            "latitude": 54.68518,
            "longitude": 25.266264,
            "country_name": null,
            "image_url": [
                "https://storage.googleapis.com/mycasavsc.appspot.com/countries/88477/imagen_1.png"
            ]
        },
        "popular_states": []
    },
    "88478": {
        "country_info": {
            "place_id": 88478,
            "name": "Slovakia",
            "latitude": 49.000652,
            "longitude": 19.478205,
            "country_name": null,
            "image_url": [
                "https://storage.googleapis.com/mycasavsc.appspot.com/countries/88478/imagen_1.png"
            ]
        },
        "popular_states": []
    },
    "88486": {
        "country_info": {
            "place_id": 88486,
            "name": "Slovenia",
            "latitude": 46.04542,
            "longitude": 14.634062,
            "country_name": null,
            "image_url": [
                "https://storage.googleapis.com/mycasavsc.appspot.com/countries/88486/imagen_1.png"
            ]
        },
        "popular_states": []
    },
    "88503": {
        "country_info": {
            "place_id": 88503,
            "name": "Belarus",
            "latitude": 53.902214,
            "longitude": 27.586798,
            "country_name": null,
            "image_url": [
                "https://storage.googleapis.com/mycasavsc.appspot.com/countries/88503/imagen_1.png"
            ]
        },
        "popular_states": []
    },
    "88527": {
        "country_info": {
            "place_id": 88527,
            "name": "Cyprus",
            "latitude": 35.020107,
            "longitude": 33.238266,
            "country_name": null,
            "image_url": [
                "https://storage.googleapis.com/mycasavsc.appspot.com/countries/88527/imagen_1.png"
            ]
        },
        "popular_states": []
    },
    "88597": {
        "country_info": {
            "place_id": 88597,
            "name": "Bosnia and Herzegovina",
            "latitude": 44.25,
            "longitude": 17.778399,
            "country_name": null,
            "image_url": [
                "https://storage.googleapis.com/mycasavsc.appspot.com/countries/88597/imagen_1.png"
            ]
        },
        "popular_states": []
    },
    "88609": {
        "country_info": {
            "place_id": 88609,
            "name": "Albania",
            "latitude": 41.326664,
            "longitude": 19.813658,
            "country_name": null,
            "image_url": [
                "https://storage.googleapis.com/mycasavsc.appspot.com/countries/88609/imagen_1.png"
            ]
        },
        "popular_states": []
    },
    "88654": {
        "country_info": {
            "place_id": 88654,
            "name": "Montenegro",
            "latitude": 42.664013,
            "longitude": 19.23064,
            "country_name": null,
            "image_url": [
                "https://storage.googleapis.com/mycasavsc.appspot.com/countries/88654/imagen_1.png"
            ]
        },
        "popular_states": []
    },
    "88723": {
        "country_info": {
            "place_id": 88723,
            "name": "Luxembourg",
            "latitude": 49.6096,
            "longitude": 6.12969,
            "country_name": null,
            "image_url": [
                "https://storage.googleapis.com/mycasavsc.appspot.com/countries/88723/imagen_1.png"
            ]
        },
        "popular_states": []
    },
    "88727": {
        "country_info": {
            "place_id": 88727,
            "name": "Republic of North Macedonia",
            "latitude": 41.551144,
            "longitude": 21.678923,
            "country_name": null,
            "image_url": [
                "https://storage.googleapis.com/mycasavsc.appspot.com/countries/88727/imagen_1.png"
            ]
        },
        "popular_states": []
    },
    "88731": {
        "country_info": {
            "place_id": 88731,
            "name": "Moldova",
            "latitude": 47.098827,
            "longitude": 28.61692,
            "country_name": null,
            "image_url": [
                "https://storage.googleapis.com/mycasavsc.appspot.com/countries/88731/imagen_1.png"
            ]
        },
        "popular_states": []
    },
    "88978": {
        "country_info": {
            "place_id": 88978,
            "name": "Andorra",
            "latitude": 42.51181,
            "longitude": 1.540951,
            "country_name": null,
            "image_url": [
                "https://storage.googleapis.com/mycasavsc.appspot.com/countries/88978/imagen_1.png"
            ]
        },
        "popular_states": []
    },
    "89073": {
        "country_info": {
            "place_id": 89073,
            "name": "San Marino",
            "latitude": 43.93933,
            "longitude": 12.4426,
            "country_name": null,
            "image_url": [
                "https://storage.googleapis.com/mycasavsc.appspot.com/countries/89073/imagen_1.png"
            ]
        },
        "popular_states": []
    },
    "89098": {
        "country_info": {
            "place_id": 89098,
            "name": "Monaco",
            "latitude": 43.73287,
            "longitude": 7.41754,
            "country_name": null,
            "image_url": [
                "https://storage.googleapis.com/mycasavsc.appspot.com/countries/89098/imagen_1.png"
            ]
        },
        "popular_states": []
    },
    "89102": {
        "country_info": {
            "place_id": 89102,
            "name": "Kosovo",
            "latitude": 42.545773,
            "longitude": 21.083046,
            "country_name": null,
            "image_url": [
                "https://storage.googleapis.com/mycasavsc.appspot.com/countries/89102/imagen_1.png"
            ]
        },
        "popular_states": []
    },
    "89196": {
        "country_info": {
            "place_id": 89196,
            "name": "Faroe Islands",
            "latitude": 62.128155,
            "longitude": -6.975177,
            "country_name": null,
            "image_url": [
                "https://storage.googleapis.com/mycasavsc.appspot.com/countries/89196/imagen_1.png"
            ]
        },
        "popular_states": []
    },
    "89330": {
        "country_info": {
            "place_id": 89330,
            "name": "Liechtenstein",
            "latitude": 47.187847,
            "longitude": 9.533987,
            "country_name": null,
            "image_url": [
                "https://storage.googleapis.com/mycasavsc.appspot.com/countries/89330/imagen_1.png"
            ]
        },
        "popular_states": []
    },
    "90374": {
        "country_info": {
            "place_id": 90374,
            "name": "Canada",
            "latitude": 54.008373,
            "longitude": -101.51419,
            "country_name": null,
            "image_url": [
                "https://storage.googleapis.com/mycasavsc.appspot.com/countries/90374/imagen_1.png"
            ]
        },
        "popular_states": []
    },
    "90407": {
        "country_info": {
            "place_id": 90407,
            "name": "United States",
            "latitude": 37.94097,
            "longitude": -95.39237,
            "country_name": null,
            "image_url": [
                "https://storage.googleapis.com/mycasavsc.appspot.com/countries/90407/imagen_1.png"
            ]
        },
        "popular_states": [
            {
                "place_id": 90404,
                "name": "New York",
                "latitude": 42.423985,
                "longitude": -74.88397,
                "country_name": "United States",
                "image_url": [
                    "https://storage.googleapis.com/mycasavsc.appspot.com/countries/90404/imagen_1.png"
                ]
            },
            {
                "place_id": 90405,
                "name": "California",
                "latitude": 37.511375,
                "longitude": -121.07013,
                "country_name": "United States",
                "image_url": [
                    "https://storage.googleapis.com/mycasavsc.appspot.com/countries/90405/imagen_1.png"
                ]
            },
            {
                "place_id": 90414,
                "name": "Florida",
                "latitude": 27.882418,
                "longitude": -81.53608,
                "country_name": "United States",
                "image_url": [
                    "https://storage.googleapis.com/mycasavsc.appspot.com/countries/90414/imagen_1.png"
                ]
            },
            {
                "place_id": 90409,
                "name": "Nevada",
                "latitude": 39.10089,
                "longitude": -116.96081,
                "country_name": "United States",
                "image_url": [
                    "https://storage.googleapis.com/mycasavsc.appspot.com/countries/90409/imagen_1.png"
                ]
            },
            {
                "place_id": 90419,
                "name": "Texas",
                "latitude": 31.558006,
                "longitude": -98.63759,
                "country_name": "United States",
                "image_url": [
                    "https://storage.googleapis.com/mycasavsc.appspot.com/countries/90419/imagen_1.png"
                ]
            },
            {
                "place_id": 90406,
                "name": "Illinois",
                "latitude": 40.102196,
                "longitude": -89.29494,
                "country_name": "United States",
                "image_url": [
                    "https://storage.googleapis.com/mycasavsc.appspot.com/countries/90406/imagen_1.png"
                ]
            },
            {
                "place_id": 90415,
                "name": "District of Columbia",
                "latitude": 38.91314,
                "longitude": -77.03088,
                "country_name": "United States",
                "image_url": [
                    "https://storage.googleapis.com/mycasavsc.appspot.com/countries/90415/imagen_1.png"
                ]
            },
            {
                "place_id": 90420,
                "name": "Massachusetts",
                "latitude": 42.352795,
                "longitude": -71.98128,
                "country_name": "United States",
                "image_url": [
                    "https://storage.googleapis.com/mycasavsc.appspot.com/countries/90420/imagen_1.png"
                ]
            },
            {
                "place_id": 90412,
                "name": "Washington",
                "latitude": 47.18598,
                "longitude": -120.08606,
                "country_name": "United States",
                "image_url": [
                    "https://storage.googleapis.com/mycasavsc.appspot.com/countries/90412/imagen_1.png"
                ]
            },
            {
                "place_id": 90413,
                "name": "Louisiana",
                "latitude": 30.846338,
                "longitude": -92.25053,
                "country_name": "United States",
                "image_url": [
                    "https://storage.googleapis.com/mycasavsc.appspot.com/countries/90413/imagen_1.png"
                ]
            }
        ]
    },
    "90647": {
        "country_info": {
            "place_id": 90647,
            "name": "Panama",
            "latitude": 8.505424,
            "longitude": -80.10693,
            "country_name": null,
            "image_url": [
                "https://storage.googleapis.com/mycasavsc.appspot.com/countries/90647/imagen_1.png"
            ]
        },
        "popular_states": []
    },
    "90648": {
        "country_info": {
            "place_id": 90648,
            "name": "Honduras",
            "latitude": 14.774788,
            "longitude": -86.581764,
            "country_name": null,
            "image_url": [
                "https://storage.googleapis.com/mycasavsc.appspot.com/countries/90648/imagen_1.png"
            ]
        },
        "popular_states": []
    },
    "90651": {
        "country_info": {
            "place_id": 90651,
            "name": "Costa Rica",
            "latitude": 9.936454,
            "longitude": -84.06831,
            "country_name": null,
            "image_url": [
                "https://storage.googleapis.com/mycasavsc.appspot.com/countries/90651/imagen_1.png"
            ]
        },
        "popular_states": []
    },
    "90652": {
        "country_info": {
            "place_id": 90652,
            "name": "Guatemala",
            "latitude": 15.614912,
            "longitude": -90.379074,
            "country_name": null,
            "image_url": [
                "https://storage.googleapis.com/mycasavsc.appspot.com/countries/90652/imagen_1.png"
            ]
        },
        "popular_states": []
    },
    "90656": {
        "country_info": {
            "place_id": 90656,
            "name": "Belize",
            "latitude": 17.25,
            "longitude": -88.6074,
            "country_name": null,
            "image_url": [
                "https://storage.googleapis.com/mycasavsc.appspot.com/countries/90656/imagen_1.png"
            ]
        },
        "popular_states": []
    },
    "90660": {
        "country_info": {
            "place_id": 90660,
            "name": "Nicaragua",
            "latitude": 12.11721,
            "longitude": -86.24079,
            "country_name": null,
            "image_url": [
                "https://storage.googleapis.com/mycasavsc.appspot.com/countries/90660/imagen_1.png"
            ]
        },
        "popular_states": []
    },
    "90663": {
        "country_info": {
            "place_id": 90663,
            "name": "El Salvador",
            "latitude": 13.699134,
            "longitude": -89.19052,
            "country_name": null,
            "image_url": [
                "https://storage.googleapis.com/mycasavsc.appspot.com/countries/90663/imagen_1.png"
            ]
        },
        "popular_states": []
    },
    "90759": {
        "country_info": {
            "place_id": 90759,
            "name": "Morocco",
            "latitude": 32.50859,
            "longitude": -7.031084,
            "country_name": null,
            "image_url": [
                "https://storage.googleapis.com/mycasavsc.appspot.com/countries/90759/imagen_1.png"
            ]
        },
        "popular_states": []
    },
    "90761": {
        "country_info": {
            "place_id": 90761,
            "name": "Tanzania",
            "latitude": -6.221977,
            "longitude": 35.53579,
            "country_name": null,
            "image_url": [
                "https://storage.googleapis.com/mycasavsc.appspot.com/countries/90761/imagen_1.png"
            ]
        },
        "popular_states": []
    },
    "90762": {
        "country_info": {
            "place_id": 90762,
            "name": "Kenya",
            "latitude": -1.284482,
            "longitude": 36.818867,
            "country_name": null,
            "image_url": [
                "https://storage.googleapis.com/mycasavsc.appspot.com/countries/90762/imagen_1.png"
            ]
        },
        "popular_states": []
    },
    "90763": {
        "country_info": {
            "place_id": 90763,
            "name": "Egypt",
            "latitude": 30.05298,
            "longitude": 31.23274,
            "country_name": null,
            "image_url": [
                "https://storage.googleapis.com/mycasavsc.appspot.com/countries/90763/imagen_1.png"
            ]
        },
        "popular_states": []
    },
    "90764": {
        "country_info": {
            "place_id": 90764,
            "name": "South Africa",
            "latitude": -30.958544,
            "longitude": 24.21163,
            "country_name": null,
            "image_url": [
                "https://storage.googleapis.com/mycasavsc.appspot.com/countries/90764/imagen_1.png"
            ]
        },
        "popular_states": []
    },
    "90774": {
        "country_info": {
            "place_id": 90774,
            "name": "Uganda",
            "latitude": 0.32537,
            "longitude": 32.58701,
            "country_name": null,
            "image_url": [
                "https://storage.googleapis.com/mycasavsc.appspot.com/countries/90774/imagen_1.png"
            ]
        },
        "popular_states": []
    },
    "90776": {
        "country_info": {
            "place_id": 90776,
            "name": "Ethiopia",
            "latitude": 9.023558,
            "longitude": 38.74412,
            "country_name": null,
            "image_url": [
                "https://storage.googleapis.com/mycasavsc.appspot.com/countries/90776/imagen_1.png"
            ]
        },
        "popular_states": []
    },
    "90785": {
        "country_info": {
            "place_id": 90785,
            "name": "Rwanda",
            "latitude": -2.009164,
            "longitude": 29.912619,
            "country_name": null,
            "image_url": [
                "https://storage.googleapis.com/mycasavsc.appspot.com/countries/90785/imagen_1.png"
            ]
        },
        "popular_states": []
    },
    "90788": {
        "country_info": {
            "place_id": 90788,
            "name": "Seychelles",
            "latitude": -4.689126,
            "longitude": 55.465916,
            "country_name": null,
            "image_url": [
                "https://storage.googleapis.com/mycasavsc.appspot.com/countries/90788/imagen_1.png"
            ]
        },
        "popular_states": []
    },
    "90790": {
        "country_info": {
            "place_id": 90790,
            "name": "Tunisia",
            "latitude": 36.80002,
            "longitude": 10.1827,
            "country_name": null,
            "image_url": [
                "https://storage.googleapis.com/mycasavsc.appspot.com/countries/90790/imagen_1.png"
            ]
        },
        "popular_states": []
    },
    "90791": {
        "country_info": {
            "place_id": 90791,
            "name": "Cape Verde",
            "latitude": 15.070514,
            "longitude": -23.63237,
            "country_name": null,
            "image_url": [
                "https://storage.googleapis.com/mycasavsc.appspot.com/countries/90791/imagen_1.png"
            ]
        },
        "popular_states": []
    },
    "90796": {
        "country_info": {
            "place_id": 90796,
            "name": "Namibia",
            "latitude": -22.571373,
            "longitude": 17.08073,
            "country_name": null,
            "image_url": [
                "https://storage.googleapis.com/mycasavsc.appspot.com/countries/90796/imagen_1.png"
            ]
        },
        "popular_states": []
    },
    "90797": {
        "country_info": {
            "place_id": 90797,
            "name": "Ghana",
            "latitude": 6.359845,
            "longitude": -0.544075,
            "country_name": null,
            "image_url": [
                "https://storage.googleapis.com/mycasavsc.appspot.com/countries/90797/imagen_1.png"
            ]
        },
        "popular_states": []
    },
    "90798": {
        "country_info": {
            "place_id": 90798,
            "name": "Madagascar",
            "latitude": -18.914103,
            "longitude": 47.52082,
            "country_name": null,
            "image_url": [
                "https://storage.googleapis.com/mycasavsc.appspot.com/countries/90798/imagen_1.png"
            ]
        },
        "popular_states": []
    },
    "90801": {
        "country_info": {
            "place_id": 90801,
            "name": "Zimbabwe",
            "latitude": -17.82439,
            "longitude": 31.04995,
            "country_name": null,
            "image_url": [
                "https://storage.googleapis.com/mycasavsc.appspot.com/countries/90801/imagen_1.png"
            ]
        },
        "popular_states": []
    },
    "90806": {
        "country_info": {
            "place_id": 90806,
            "name": "Zambia",
            "latitude": -15.42554,
            "longitude": 28.27872,
            "country_name": null,
            "image_url": [
                "https://storage.googleapis.com/mycasavsc.appspot.com/countries/90806/imagen_1.png"
            ]
        },
        "popular_states": []
    },
    "90810": {
        "country_info": {
            "place_id": 90810,
            "name": "Senegal",
            "latitude": 14.66927,
            "longitude": -17.43661,
            "country_name": null,
            "image_url": [
                "https://storage.googleapis.com/mycasavsc.appspot.com/countries/90810/imagen_1.png"
            ]
        },
        "popular_states": []
    },
    "90815": {
        "country_info": {
            "place_id": 90815,
            "name": "Nigeria",
            "latitude": 9.0631,
            "longitude": 7.46179,
            "country_name": null,
            "image_url": [
                "https://storage.googleapis.com/mycasavsc.appspot.com/countries/90815/imagen_1.png"
            ]
        },
        "popular_states": [
            {
                "place_id": 90846,
                "name": "Federal Capital Territory",
                "latitude": 9.0631,
                "longitude": 7.46179,
                "country_name": "Nigeria",
                "image_url": [
                    "https://storage.googleapis.com/mycasavsc.appspot.com/countries/90846/imagen_1.png"
                ]
            },
            {
                "place_id": 91034,
                "name": "Ogun State",
                "latitude": 7.15619,
                "longitude": 3.33114,
                "country_name": "Nigeria",
                "image_url": [
                    "https://storage.googleapis.com/mycasavsc.appspot.com/countries/91034/imagen_1.png"
                ]
            },
            {
                "place_id": 90982,
                "name": "Oyo State",
                "latitude": 7.47487,
                "longitude": 3.9137,
                "country_name": "Nigeria",
                "image_url": [
                    "https://storage.googleapis.com/mycasavsc.appspot.com/countries/90982/imagen_1.png"
                ]
            },
            {
                "place_id": 90990,
                "name": "Cross River State",
                "latitude": 4.97671,
                "longitude": 8.33643,
                "country_name": "Nigeria",
                "image_url": [
                    "https://storage.googleapis.com/mycasavsc.appspot.com/countries/90990/imagen_1.png"
                ]
            },
            {
                "place_id": 90929,
                "name": "Edo State",
                "latitude": 6.33388,
                "longitude": 5.62456,
                "country_name": "Nigeria",
                "image_url": [
                    "https://storage.googleapis.com/mycasavsc.appspot.com/countries/90929/imagen_1.png"
                ]
            },
            {
                "place_id": 90943,
                "name": "Kano State",
                "latitude": 11.9555,
                "longitude": 8.497541,
                "country_name": "Nigeria",
                "image_url": [
                    "https://storage.googleapis.com/mycasavsc.appspot.com/countries/90943/imagen_1.png"
                ]
            },
            {
                "place_id": 91060,
                "name": "Osun State",
                "latitude": 7.7759,
                "longitude": 4.55472,
                "country_name": "Nigeria",
                "image_url": [
                    "https://storage.googleapis.com/mycasavsc.appspot.com/countries/91060/imagen_1.png"
                ]
            },
            {
                "place_id": 91119,
                "name": "Bauchi State",
                "latitude": 10.31014,
                "longitude": 9.84614,
                "country_name": "Nigeria",
                "image_url": [
                    "https://storage.googleapis.com/mycasavsc.appspot.com/countries/91119/imagen_1.png"
                ]
            },
            {
                "place_id": 90955,
                "name": "Kaduna State",
                "latitude": 10.54201,
                "longitude": 7.43607,
                "country_name": "Nigeria",
                "image_url": [
                    "https://storage.googleapis.com/mycasavsc.appspot.com/countries/90955/imagen_1.png"
                ]
            },
            {
                "place_id": 91082,
                "name": "Kwara State",
                "latitude": 8.46359,
                "longitude": 4.59794,
                "country_name": "Nigeria",
                "image_url": [
                    "https://storage.googleapis.com/mycasavsc.appspot.com/countries/91082/imagen_1.png"
                ]
            }
        ]
    },
    "90816": {
        "country_info": {
            "place_id": 90816,
            "name": "Mozambique",
            "latitude": -15.881305,
            "longitude": 36.868614,
            "country_name": null,
            "image_url": [
                "https://storage.googleapis.com/mycasavsc.appspot.com/countries/90816/imagen_1.png"
            ]
        },
        "popular_states": []
    },
    "90817": {
        "country_info": {
            "place_id": 90817,
            "name": "Reunion Island",
            "latitude": -21.125498,
            "longitude": 55.508423,
            "country_name": null,
            "image_url": [
                "https://storage.googleapis.com/mycasavsc.appspot.com/countries/90817/imagen_1.png"
            ]
        },
        "popular_states": []
    },
    "90821": {
        "country_info": {
            "place_id": 90821,
            "name": "Botswana",
            "latitude": -22.19376,
            "longitude": 24.117315,
            "country_name": null,
            "image_url": [
                "https://storage.googleapis.com/mycasavsc.appspot.com/countries/90821/imagen_1.png"
            ]
        },
        "popular_states": []
    },
    "90823": {
        "country_info": {
            "place_id": 90823,
            "name": "Algeria",
            "latitude": 36.66182,
            "longitude": 3.006615,
            "country_name": null,
            "image_url": [
                "https://storage.googleapis.com/mycasavsc.appspot.com/countries/90823/imagen_1.png"
            ]
        },
        "popular_states": []
    },
    "90828": {
        "country_info": {
            "place_id": 90828,
            "name": "Ivory Coast",
            "latitude": 6.82171,
            "longitude": -5.28043,
            "country_name": null,
            "image_url": [
                "https://storage.googleapis.com/mycasavsc.appspot.com/countries/90828/imagen_1.png"
            ]
        },
        "popular_states": []
    },
    "90832": {
        "country_info": {
            "place_id": 90832,
            "name": "Democratic Republic of the Congo",
            "latitude": -1.07217,
            "longitude": 20.5097,
            "country_name": null,
            "image_url": [
                "https://storage.googleapis.com/mycasavsc.appspot.com/countries/90832/imagen_1.png"
            ]
        },
        "popular_states": []
    },
    "90840": {
        "country_info": {
            "place_id": 90840,
            "name": "Gambia",
            "latitude": 13.45165,
            "longitude": -16.5746,
            "country_name": null,
            "image_url": [
                "https://storage.googleapis.com/mycasavsc.appspot.com/countries/90840/imagen_1.png"
            ]
        },
        "popular_states": []
    },
    "90841": {
        "country_info": {
            "place_id": 90841,
            "name": "Sao Tome and Principe",
            "latitude": 0.33771,
            "longitude": 6.73109,
            "country_name": null,
            "image_url": [
                "https://storage.googleapis.com/mycasavsc.appspot.com/countries/90841/imagen_1.png"
            ]
        },
        "popular_states": []
    },
    "90847": {
        "country_info": {
            "place_id": 90847,
            "name": "Angola",
            "latitude": -8.815661,
            "longitude": 13.23288,
            "country_name": null,
            "image_url": [
                "https://storage.googleapis.com/mycasavsc.appspot.com/countries/90847/imagen_1.png"
            ]
        },
        "popular_states": []
    },
    "90848": {
        "country_info": {
            "place_id": 90848,
            "name": "Eritrea",
            "latitude": 15.33637,
            "longitude": 38.93661,
            "country_name": null,
            "image_url": [
                "https://storage.googleapis.com/mycasavsc.appspot.com/countries/90848/imagen_1.png"
            ]
        },
        "popular_states": []
    },
    "90852": {
        "country_info": {
            "place_id": 90852,
            "name": "Malawi",
            "latitude": -13.91437,
            "longitude": 33.78427,
            "country_name": null,
            "image_url": [
                "https://storage.googleapis.com/mycasavsc.appspot.com/countries/90852/imagen_1.png"
            ]
        },
        "popular_states": []
    },
    "90855": {
        "country_info": {
            "place_id": 90855,
            "name": "Gabon",
            "latitude": 0.40962,
            "longitude": 9.44245,
            "country_name": null,
            "image_url": [
                "https://storage.googleapis.com/mycasavsc.appspot.com/countries/90855/imagen_1.png"
            ]
        },
        "popular_states": []
    },
    "90857": {
        "country_info": {
            "place_id": 90857,
            "name": "Sierra Leone",
            "latitude": 8.47792,
            "longitude": -13.23186,
            "country_name": null,
            "image_url": [
                "https://storage.googleapis.com/mycasavsc.appspot.com/countries/90857/imagen_1.png"
            ]
        },
        "popular_states": []
    },
    "90858": {
        "country_info": {
            "place_id": 90858,
            "name": "Togo",
            "latitude": 6.1397,
            "longitude": 1.22959,
            "country_name": null,
            "image_url": [
                "https://storage.googleapis.com/mycasavsc.appspot.com/countries/90858/imagen_1.png"
            ]
        },
        "popular_states": []
    },
    "90861": {
        "country_info": {
            "place_id": 90861,
            "name": "Benin",
            "latitude": 6.48555,
            "longitude": 2.61312,
            "country_name": null,
            "image_url": [
                "https://storage.googleapis.com/mycasavsc.appspot.com/countries/90861/imagen_1.png"
            ]
        },
        "popular_states": []
    },
    "90862": {
        "country_info": {
            "place_id": 90862,
            "name": "Sudan",
            "latitude": 15.60867,
            "longitude": 32.53578,
            "country_name": null,
            "image_url": [
                "https://storage.googleapis.com/mycasavsc.appspot.com/countries/90862/imagen_1.png"
            ]
        },
        "popular_states": [
            {
                "place_id": 90860,
                "name": "Khartoum State",
                "latitude": 15.60867,
                "longitude": 32.53578,
                "country_name": "Sudan",
                "image_url": [
                    "https://storage.googleapis.com/mycasavsc.appspot.com/countries/90860/imagen_1.png"
                ]
            },
            {
                "place_id": 91018,
                "name": "Northern State",
                "latitude": 19.36651,
                "longitude": 29.89813,
                "country_name": "Sudan",
                "image_url": [
                    "https://storage.googleapis.com/mycasavsc.appspot.com/countries/91018/imagen_1.png"
                ]
            },
            {
                "place_id": 91121,
                "name": "Kassala State",
                "latitude": 15.96781,
                "longitude": 35.52902,
                "country_name": "Sudan",
                "image_url": [
                    "https://storage.googleapis.com/mycasavsc.appspot.com/countries/91121/imagen_1.png"
                ]
            },
            {
                "place_id": 90983,
                "name": "Red Sea State",
                "latitude": 19.51579,
                "longitude": 35.4726,
                "country_name": "Sudan",
                "image_url": [
                    "https://storage.googleapis.com/mycasavsc.appspot.com/countries/90983/imagen_1.png"
                ]
            },
            {
                "place_id": 91160,
                "name": "South Kurdufan State",
                "latitude": 11.465842,
                "longitude": 29.700006,
                "country_name": "Sudan",
                "image_url": [
                    "https://storage.googleapis.com/mycasavsc.appspot.com/countries/91160/imagen_1.png"
                ]
            }
        ]
    },
    "90869": {
        "country_info": {
            "place_id": 90869,
            "name": "Burkina Faso",
            "latitude": 12.36822,
            "longitude": -1.52928,
            "country_name": null,
            "image_url": [
                "https://storage.googleapis.com/mycasavsc.appspot.com/countries/90869/imagen_1.png"
            ]
        },
        "popular_states": []
    },
    "90871": {
        "country_info": {
            "place_id": 90871,
            "name": "Mali",
            "latitude": 12.65032,
            "longitude": -8.00004,
            "country_name": null,
            "image_url": [
                "https://storage.googleapis.com/mycasavsc.appspot.com/countries/90871/imagen_1.png"
            ]
        },
        "popular_states": []
    },
    "90872": {
        "country_info": {
            "place_id": 90872,
            "name": "Cameroon",
            "latitude": 3.86796,
            "longitude": 11.51695,
            "country_name": null,
            "image_url": [
                "https://storage.googleapis.com/mycasavsc.appspot.com/countries/90872/imagen_1.png"
            ]
        },
        "popular_states": []
    },
    "90877": {
        "country_info": {
            "place_id": 90877,
            "name": "Somalia",
            "latitude": 2.03812,
            "longitude": 45.34157,
            "country_name": null,
            "image_url": [
                "https://storage.googleapis.com/mycasavsc.appspot.com/countries/90877/imagen_1.png"
            ]
        },
        "popular_states": []
    },
    "90882": {
        "country_info": {
            "place_id": 90882,
            "name": "Lesotho",
            "latitude": -29.31618,
            "longitude": 27.49303,
            "country_name": null,
            "image_url": [
                "https://storage.googleapis.com/mycasavsc.appspot.com/countries/90882/imagen_1.png"
            ]
        },
        "popular_states": []
    },
    "90883": {
        "country_info": {
            "place_id": 90883,
            "name": "Western Sahara",
            "latitude": 24.670013,
            "longitude": -13.140014,
            "country_name": "Morocco",
            "image_url": [
                "https://storage.googleapis.com/mycasavsc.appspot.com/countries/90883/imagen_1.png"
            ]
        },
        "popular_states": []
    },
    "90884": {
        "country_info": {
            "place_id": 90884,
            "name": "Eswatini (Swaziland)",
            "latitude": -26.32601,
            "longitude": 31.14109,
            "country_name": null,
            "image_url": [
                "https://storage.googleapis.com/mycasavsc.appspot.com/countries/90884/imagen_1.png"
            ]
        },
        "popular_states": []
    },
    "90889": {
        "country_info": {
            "place_id": 90889,
            "name": "Libya",
            "latitude": 32.86393,
            "longitude": 13.15886,
            "country_name": null,
            "image_url": [
                "https://storage.googleapis.com/mycasavsc.appspot.com/countries/90889/imagen_1.png"
            ]
        },
        "popular_states": []
    },
    "90899": {
        "country_info": {
            "place_id": 90899,
            "name": "Djibouti",
            "latitude": 11.58766,
            "longitude": 43.1448,
            "country_name": null,
            "image_url": [
                "https://storage.googleapis.com/mycasavsc.appspot.com/countries/90899/imagen_1.png"
            ]
        },
        "popular_states": []
    },
    "90900": {
        "country_info": {
            "place_id": 90900,
            "name": "Mauritania",
            "latitude": 18.07976,
            "longitude": -15.96778,
            "country_name": null,
            "image_url": [
                "https://storage.googleapis.com/mycasavsc.appspot.com/countries/90900/imagen_1.png"
            ]
        },
        "popular_states": []
    },
    "90906": {
        "country_info": {
            "place_id": 90906,
            "name": "Liberia",
            "latitude": 6.30245,
            "longitude": -10.79627,
            "country_name": null,
            "image_url": [
                "https://storage.googleapis.com/mycasavsc.appspot.com/countries/90906/imagen_1.png"
            ]
        },