[
    {
        "index": 1,
        "place_name": "Mahakali Caves",
        "latitude": "19.128904",
        "longitude": "72.87159",
        "city": "Mumbai",
        "state": "Maharashtra",
        "country": "India",
        "url": "https://www.atlasobscura.com/places/mahakali-caves"
    },
    {
        "index": 2,
        "place_name": "Antilia",
        "latitude": "19.017615",
        "longitude": "72.856164",
        "city": "Mumbai",
        "state": "Maharashtra",
        "country": "India",
        "url": "https://www.atlasobscura.com/places/antilia"
    },
    {
        "index": 3,
        "place_name": "Tower of Silence in Mumbai",
        "latitude": "18.961818",
        "longitude": "72.807148",
        "city": "Mumbai",
        "state": "Maharashtra",
        "country": "India",
        "url": "https://www.atlasobscura.com/places/tower-of-silence-mumbai"
    },
    {
        "index": 4,
        "place_name": "The Magen David Synagogue",
        "latitude": "18.966811",
        "longitude": "72.831238",
        "city": "Mumbai",
        "state": "Maharashtra",
        "country": "India",
        "url": "https://www.atlasobscura.com/places/magen-david-synagogue"
    },
    {
        "index": 5,
        "place_name": "Gilbert Hill",
        "latitude": "19.120572",
        "longitude": "72.840193",
        "city": "Mumbai",
        "state": "Maharashtra",
        "country": "India",
        "url": "https://www.atlasobscura.com/places/gilbert-hill"
    },
    {
        "index": 6,
        "place_name": "Banganga Tank",
        "latitude": "18.945695",
        "longitude": "72.793621",
        "city": "Mumbai",
        "state": "Maharashtra",
        "country": "India",
        "url": "https://www.atlasobscura.com/places/banganga-tank"
    },
    {
        "index": 7,
        "place_name": "Kwan Kung Temple",
        "latitude": "18.96566",
        "longitude": "72.846058",
        "city": "Mumbai",
        "state": "Maharashtra",
        "country": "India",
        "url": "https://www.atlasobscura.com/places/kwan-kung-temple"
    },
    {
        "index": 8,
        "place_name": "Mumbai's Parsi Fire Temples",
        "latitude": "18.936518",
        "longitude": "72.835823",
        "city": "Mumbai",
        "state": "Maharashtra",
        "country": "India",
        "url": "https://www.atlasobscura.com/places/parsi-fire-temple"
    },
    {
        "index": 9,
        "place_name": "Afghan Church",
        "latitude": "18.906452",
        "longitude": "72.816241",
        "city": "Mumbai",
        "state": "Maharashtra",
        "country": "India",
        "url": "https://www.atlasobscura.com/places/afghan-church"
    },
    {
        "index": 10,
        "place_name": "The Lion & Tiger Statues",
        "latitude": "18.939845",
        "longitude": "72.835448",
        "city": "Mumbai",
        "state": "Maharashtra",
        "country": "India",
        "url": "https://www.atlasobscura.com/places/the-lion-tiger-statues"
    },
    {
        "index": 11,
        "place_name": "Chhatrapati Shivaji Terminus",
        "latitude": "18.94487",
        "longitude": "72.833672",
        "city": "Mumbai",
        "state": "Maharashtra",
        "country": "India",
        "url": "https://www.atlasobscura.com/places/chhatrapati-shivaji-terminus-mumbai"
    },
    {
        "index": 12,
        "place_name": "'Urbs Prima In Indis'",
        "latitude": "18.940372",
        "longitude": "72.834502",
        "city": "Mumbai",
        "state": "Maharashtra",
        "country": "India",
        "url": "https://www.atlasobscura.com/places/urbs-prima-in-indis"
    },
    {
        "index": 13,
        "place_name": "Kothari Pyau",
        "latitude": "18.938279",
        "longitude": "72.837004",
        "city": "Mumbai",
        "state": "Maharashtra",
        "country": "India",
        "url": "https://www.atlasobscura.com/places/kothari-pyau"
    },
    {
        "index": 14,
        "place_name": "Ruttonsee Muljee Jetha Fountain",
        "latitude": "18.935598",
        "longitude": "72.837143",
        "city": "Mumbai",
        "state": "Maharashtra",
        "country": "India",
        "url": "https://www.atlasobscura.com/places/ruttonsee-muljee-jetha-fountain"
    },
    {
        "index": 15,
        "place_name": "Fort George",
        "latitude": "18.941237",
        "longitude": "72.838489",
        "city": "Mumbai",
        "state": "Maharashtra",
        "country": "India",
        "url": "https://www.atlasobscura.com/places/fort-george-mumbai"
    },
    {
        "index": 16,
        "place_name": "Bomanjee Hormarjee Wadia Clock Tower",
        "latitude": "18.934298",
        "longitude": "72.835847",
        "city": "Mumbai",
        "state": "Maharashtra",
        "country": "India",
        "url": "https://www.atlasobscura.com/places/bomanjee-hormarjee-wadia-clock-tower"
    },
    {
        "index": 17,
        "place_name": "St. Thomas Cathedral",
        "latitude": "18.9319",
        "longitude": "72.833685",
        "city": "Mumbai",
        "state": "Maharashtra",
        "country": "India",
        "url": "https://www.atlasobscura.com/places/st-thomas-cathedral"
    },
    {
        "index": 18,
        "place_name": "Bandra Fort",
        "latitude": "19.041889",
        "longitude": "72.818359",
        "city": "Mumbai",
        "state": "Maharashtra",
        "country": "India",
        "url": "https://www.atlasobscura.com/places/bandra-fort"
    },
    {
        "index": 19,
        "place_name": "Fitzgerald Fountain",
        "latitude": "18.943486",
        "longitude": "72.829338",
        "city": "Mumbai",
        "state": "Maharashtra",
        "country": "India",
        "url": "https://www.atlasobscura.com/places/fitzgerald-fountain"
    },
    {
        "index": 20,
        "place_name": "Old Womanâ€™s Shoe",
        "latitude": "18.955654",
        "longitude": "72.805718",
        "city": "Mumbai",
        "state": "Maharashtra",
        "country": "India",
        "url": "https://www.atlasobscura.com/places/old-womans-shoe-mumbai"
    },
    {
        "index": 21,
        "place_name": "Army & Navy Building",
        "latitude": "18.927915",
        "longitude": "72.830993",
        "city": "Mumbai",
        "state": "Maharashtra",
        "country": "India",
        "url": "https://www.atlasobscura.com/places/army-navy-building"
    },
    {
        "index": 22,
        "place_name": "Port Trust War Memorial",
        "latitude": "18.934016",
        "longitude": "72.840139",
        "city": "Mumbai",
        "state": "Maharashtra",
        "country": "India",
        "url": "https://www.atlasobscura.com/places/port-trust-war-memorial"
    },
    {
        "index": 23,
        "place_name": "Kala Ghoda Statue",
        "latitude": "18.927864",
        "longitude": "72.831831",
        "city": "Mumbai",
        "state": "Maharashtra",
        "country": "India",
        "url": "https://www.atlasobscura.com/places/kala-ghoda-statue"
    },
    {
        "index": 24,
        "place_name": "Flora Fountain",
        "latitude": "18.932481",
        "longitude": "72.831517",
        "city": "Mumbai",
        "state": "Maharashtra",
        "country": "India",
        "url": "https://www.atlasobscura.com/places/flora-fountain"
    }
]