[
    {
        "index": 1,
        "place_name": "South Park Street Cemetery",
        "latitude": "22.545811",
        "longitude": "88.360592",
        "city": "Kolkata",
        "state": "West Bengal",
        "country": "India",
        "url": "https://www.atlasobscura.com/places/south-park-street-cemetery"
    },
    {
        "index": 2,
        "place_name": "College Street",
        "latitude": "22.576014",
        "longitude": "88.364466",
        "city": "Kolkata",
        "state": "West Bengal",
        "country": "India",
        "url": "https://www.atlasobscura.com/places/college-street"
    },
    {
        "index": 3,
        "place_name": "Nahoum and Sons",
        "latitude": "22.560069",
        "longitude": "88.352468",
        "city": "Kolkata",
        "state": "West Bengal",
        "country": "India",
        "url": "https://www.atlasobscura.com/places/nahoum-sons-kolkata-jewish-bakery"
    },
    {
        "index": 4,
        "place_name": "Terreti Bazaar ",
        "latitude": "22.573307",
        "longitude": "88.354801",
        "city": "Kolkata",
        "state": "West Bengal",
        "country": "India",
        "url": "https://www.atlasobscura.com/places/terreti-bazaar"
    },
    {
        "index": 5,
        "place_name": "Marble Palace",
        "latitude": "22.582798",
        "longitude": "88.360376",
        "city": "Kolkata",
        "state": "West Bengal",
        "country": "India",
        "url": "https://www.atlasobscura.com/places/marble-palace"
    },
    {
        "index": 6,
        "place_name": "The Black Hole of Calcutta",
        "latitude": "22.554246",
        "longitude": "88.335874",
        "city": "Kolkata",
        "state": "West Bengal",
        "country": "India",
        "url": "https://www.atlasobscura.com/places/the-black-hole-of-calcutta"
    },
    {
        "index": 7,
        "place_name": "Mud Statues of Kumortuli  ",
        "latitude": "22.599552",
        "longitude": "88.362708",
        "city": "Kolkata",
        "state": "West Bengal",
        "country": "India",
        "url": "https://www.atlasobscura.com/places/mud-statues-of-kumortuli"
    },
    {
        "index": 8,
        "place_name": "Pen Hospital",
        "latitude": "22.563299",
        "longitude": "88.351407",
        "city": "Kolkata",
        "state": "West Bengal",
        "country": "India",
        "url": "https://www.atlasobscura.com/places/kolkata-pen-hospital"
    },
    {
        "index": 9,
        "place_name": "Cathedral of the Most Holy Rosary",
        "latitude": "22.57862",
        "longitude": "88.353388",
        "city": "Kolkata",
        "state": "West Bengal",
        "country": "India",
        "url": "https://www.atlasobscura.com/places/cathedral-of-the-most-holy-rosary"
    },
    {
        "index": 10,
        "place_name": "Nipponzan Myohoji",
        "latitude": "22.510748",
        "longitude": "88.36624",
        "city": "Kolkata",
        "state": "West Bengal",
        "country": "India",
        "url": "https://www.atlasobscura.com/places/nipponzan-myohoji"
    },
    {
        "index": 11,
        "place_name": "Armenian Church of the Holy Nazareth",
        "latitude": "22.579622",
        "longitude": "88.351325",
        "city": "Kolkata",
        "state": "West Bengal",
        "country": "India",
        "url": "https://www.atlasobscura.com/places/armenian-church-of-the-holy-nazareth"
    },
    {
        "index": 12,
        "place_name": "Ronald Ross Memorial",
        "latitude": "22.540889",
        "longitude": "88.341482",
        "city": "Kolkata",
        "state": "West Bengal",
        "country": "India",
        "url": "https://www.atlasobscura.com/places/ronald-ross-memorial"
    },
    {
        "index": 13,
        "place_name": "Chinese Kali Mandir",
        "latitude": "22.547651",
        "longitude": "88.391314",
        "city": "Kolkata",
        "state": "West Bengal",
        "country": "India",
        "url": "https://www.atlasobscura.com/places/chinese-kali-mandir-temple"
    }
]